,geographic_name,geometry,site_type,date_mod,dictionary,geo_database,google_maps,open_street_maps,aerial_photograph,cartographic_sheet,longitude,latitude
754,Hacienda Chupaderos,POINT Z (-75.78815121750283 4.039207262347611 0),Hacienda,2015-01-05T00:00:00+00:00,False,True,False,False,False,False,-75.78815121750283,4.039207262347611
755,La Pensadera,POINT Z (-75.79463774054302 4.049728444284064 0),,2015-01-05T00:00:00+00:00,False,True,False,False,False,False,-75.79463774054302,4.049728444284064
756,Chupaderos,POINT Z (-75.7899171596179 4.028780556424753 0),,2015-01-05T00:00:00+00:00,False,True,False,False,False,False,-75.7899171596179,4.028780556424753
757,Hacienda La Palmera,POINT Z (-75.83541200217162 4.029642572513662 0),Hacienda,2015-01-05T00:00:00+00:00,False,True,False,False,False,False,-75.83541200217162,4.029642572513662
758,Los Poloches,POINT Z (-75.82359678735548 3.983024573354182 0),,2015-01-05T00:00:00+00:00,False,True,False,False,False,False,-75.82359678735548,3.983024573354182
759,La Cabaña,POINT Z (-75.83565616602593 4.004702520336408 0),,2015-01-05T00:00:00+00:00,False,True,False,False,False,False,-75.83565616602593,4.004702520336408
760,Rumania,POINT Z (-75.83093295233019 3.962960811183309 0),,2015-01-05T00:00:00+00:00,False,True,False,False,False,False,-75.83093295233019,3.962960811183309
761,Los Confines,POINT Z (-75.83457216034212 3.97292058934214 0),,2015-01-05T00:00:00+00:00,False,True,False,False,False,False,-75.83457216034212,3.9729205893421398
762,Campo Alegre,POINT Z (-75.83319237525527 3.980968973553848 0),,2015-01-05T00:00:00+00:00,False,True,False,False,False,False,-75.83319237525527,3.9809689735538476
763,La Argelia,POINT Z (-75.84218883486402 3.973414070767038 0),,2015-01-05T00:00:00+00:00,False,True,False,False,False,False,-75.84218883486402,3.973414070767038
764,Hacienda Las Mirlas,POINT Z (-75.84964869735251 3.975564141891359 0),Hacienda,2015-01-05T00:00:00+00:00,False,True,False,False,False,False,-75.8496486973525,3.9755641418913585
765,La Cinta,POINT Z (-75.86169440071141 3.984644777867834 0),,2015-01-05T00:00:00+00:00,False,True,False,False,False,False,-75.86169440071141,3.984644777867834
766,Preteles,POINT Z (-75.80276574774534 3.996614838667814 0),,2015-01-05T00:00:00+00:00,False,True,False,False,False,False,-75.80276574774534,3.9966148386678135
767,La Traviata,POINT Z (-75.80935239874592 3.994731549732339 0),,2015-01-05T00:00:00+00:00,False,True,False,False,False,False,-75.80935239874592,3.9947315497323395
768,Hacienda Montecristo,POINT Z (-75.81520124470163 3.998039210025557 0),Hacienda,2015-01-05T00:00:00+00:00,False,True,False,False,False,False,-75.81520124470163,3.998039210025557
769,Preteles,POINT Z (-75.81678005040295 3.994148739041385 0),,2015-01-05T00:00:00+00:00,False,True,False,False,False,False,-75.81678005040295,3.994148739041385
770,Samaria,POINT Z (-75.82622759367111 3.992909480823458 0),,2015-01-05T00:00:00+00:00,False,True,False,False,False,False,-75.8262275936711,3.992909480823458
771,Hacienda La Lorena,POINT Z (-75.8358316057663 3.993322222520581 0),Hacienda,2015-01-05T00:00:00+00:00,False,True,False,False,False,False,-75.8358316057663,3.9933222225205807
772,El Silencio,POINT Z (-75.84917289132699 3.993342771988562 0),,2015-01-05T00:00:00+00:00,False,True,False,False,False,False,-75.84917289132699,3.9933427719885617
773,Hacienda La Bolsa,POINT Z (-75.86052915768153 3.994617345738014 0),Hacienda,2015-01-05T00:00:00+00:00,False,True,False,False,False,False,-75.86052915768153,3.994617345738014
774,Las Margaritas,POINT Z (-75.85823896635368 4.005747318762908 0),,2015-01-05T00:00:00+00:00,False,True,False,False,False,False,-75.85823896635368,4.005747318762908
775,El Brete,POINT Z (-75.85624309891962 4.006870442504074 0),,2015-01-05T00:00:00+00:00,False,True,False,False,False,False,-75.85624309891962,4.0068704425040735
776,El Danubio,POINT Z (-75.85124251278259 4.007184475292283 0),,2015-01-05T00:00:00+00:00,False,True,False,False,False,False,-75.85124251278259,4.007184475292283
777,El Volga,POINT Z (-75.82680920748426 4.002033249490593 0),,2015-01-05T00:00:00+00:00,False,True,False,False,False,False,-75.82680920748426,4.002033249490593
778,Lutecia,POINT Z (-75.80529738456234 4.013832350178101 0),,2015-01-05T00:00:00+00:00,False,True,False,False,False,False,-75.80529738456234,4.013832350178101
779,Delicias,POINT Z (-75.82569000258779 4.010644177727728 0),,2015-01-05T00:00:00+00:00,False,True,False,False,False,False,-75.82569000258779,4.010644177727728
780,La Cabañita,POINT Z (-75.83708727848786 4.00955761931709 0),,2015-01-05T00:00:00+00:00,False,True,False,False,False,False,-75.83708727848786,4.00955761931709
781,El Agupante,POINT Z (-75.85336890713215 4.018173250465614 0),,2015-01-05T00:00:00+00:00,False,True,False,False,False,False,-75.85336890713215,4.018173250465614
782,El Planeta,POINT Z (-75.85140678214573 4.023713293212101 0),,2015-01-05T00:00:00+00:00,False,True,False,False,False,False,-75.85140678214573,4.023713293212101
783,El Mirador,POINT Z (-75.84710799225904 4.019485746085814 0),,2015-01-05T00:00:00+00:00,False,True,False,False,False,False,-75.84710799225904,4.019485746085814
784,Miraflores,POINT Z (-75.84428673089008 4.022131646884513 0),,2015-01-05T00:00:00+00:00,False,True,False,False,False,False,-75.84428673089008,4.022131646884513
785,La Iberia,POINT Z (-75.82180946265534 4.021483998148442 0),,2015-01-05T00:00:00+00:00,False,True,False,False,False,False,-75.82180946265534,4.021483998148442
786,Rincón Santo,POINT Z (-75.81714901042403 4.024878984556588 0),,2015-01-05T00:00:00+00:00,False,True,False,False,False,False,-75.81714901042403,4.0248789845565875
787,Cartago,POINT Z (-75.81273288956331 4.017856644353337 0),,2015-01-05T00:00:00+00:00,False,True,False,False,False,False,-75.8127328895633,4.017856644353337
788,La Esperanza,POINT Z (-75.78817170091195 4.022872557300632 0),,2015-01-05T00:00:00+00:00,False,True,False,False,False,False,-75.78817170091195,4.022872557300632
789,El Cinchon Tequendama,POINT Z (-75.79751140213851 4.030098468443952 0),,2015-01-05T00:00:00+00:00,False,True,False,False,False,False,-75.79751140213851,4.030098468443952
790,Las Nieves,POINT Z (-75.83020593583495 4.032264013519754 0),,2015-01-05T00:00:00+00:00,True,True,False,False,False,False,-75.83020593583495,4.032264013519754
791,Hacienda Loma Redonda,POINT Z (-75.84880568712636 4.033361142910374 0),Loma,2015-01-05T00:00:00+00:00,False,True,False,False,False,False,-75.84880568712636,4.033361142910374
792,Cobeima,POINT Z (-75.85684806264419 4.027608735762735 0),,2015-01-05T00:00:00+00:00,False,True,False,False,False,False,-75.85684806264419,4.027608735762735
793,Los Osos,POINT Z (-75.85848627750609 4.027370131768189 0),,2015-01-05T00:00:00+00:00,False,True,False,False,False,False,-75.85848627750609,4.027370131768189
794,La Profunda,POINT Z (-75.85614360799322 4.034466799283059 0),,2015-01-05T00:00:00+00:00,False,True,False,False,False,False,-75.85614360799322,4.034466799283059
795,La Linda,POINT Z (-75.84536196388346 4.042553173471942 0),,2015-01-05T00:00:00+00:00,False,True,False,False,False,False,-75.84536196388346,4.0425531734719415
796,La Argentina,POINT Z (-75.82856299472785 4.044386866407762 0),,2015-01-05T00:00:00+00:00,False,True,False,False,False,False,-75.82856299472785,4.044386866407762
797,Leticia,POINT Z (-75.81916462498098 4.043025027321182 0),,2015-01-05T00:00:00+00:00,False,True,False,False,False,False,-75.81916462498098,4.043025027321182
798,Guayabal,POINT Z (-75.81043115333757 4.043168696731203 0),,2015-01-05T00:00:00+00:00,False,True,False,False,False,False,-75.81043115333757,4.043168696731203
799,La Lora,POINT Z (-75.79444854947177 4.038147828685586 0),,2015-01-05T00:00:00+00:00,False,True,False,False,False,False,-75.79444854947177,4.038147828685586
800,La Rivera,POINT Z (-75.78698288497417 4.049595284152601 0),,2015-01-05T00:00:00+00:00,False,True,False,False,False,False,-75.78698288497417,4.049595284152601
801,Hacienda Guayabal,POINT Z (-75.81445762372634 4.048862177498103 0),Hacienda,2015-01-05T00:00:00+00:00,False,True,False,False,False,False,-75.81445762372634,4.048862177498103
802,El Silencio,POINT Z (-75.84203007448535 4.048188654203501 0),,2015-01-05T00:00:00+00:00,False,True,False,False,False,False,-75.84203007448535,4.048188654203501
803,El Mirador,POINT Z (-75.81793877272841 4.045782687292057 0),,2015-01-05T00:00:00+00:00,False,True,False,False,False,False,-75.81793877272841,4.045782687292057
804,La Cascada,POINT Z (-75.77513863635126 3.971055974630259 0),,2015-01-05T00:00:00+00:00,True,True,False,False,False,False,-75.77513863635126,3.9710559746302594
805,Florencia,POINT Z (-75.71563974179719 3.93061718295478 0),,2014-12-05T00:00:00+00:00,False,True,False,False,False,False,-75.71563974179719,3.9306171829547796
806,Alemania,POINT Z (-75.71694853627382 3.922795972663219 0),,2014-12-05T00:00:00+00:00,False,True,False,False,False,False,-75.71694853627382,3.922795972663219
807,El Pensil,POINT Z (-75.71870884792985 3.921322060835599 0),,2014-12-05T00:00:00+00:00,False,True,False,False,False,False,-75.71870884792985,3.9213220608355988
808,Las Brisas,POINT Z (-75.70964357764207 3.916589353679864 0),,2014-12-05T00:00:00+00:00,False,True,False,False,False,False,-75.70964357764207,3.9165893536798637
809,Balsora,POINT Z (-75.71299510143623 3.894235612449247 0),,2014-12-05T00:00:00+00:00,False,True,False,False,False,False,-75.71299510143623,3.8942356124492474
810,Hacienda Las Vegas,POINT Z (-75.69995352940768 3.872311198277632 0),Hacienda,2014-12-05T00:00:00+00:00,False,True,False,False,False,False,-75.69995352940768,3.8723111982776324
811,Siberia,POINT Z (-75.69382301381505 3.889098284747844 0),,2014-12-05T00:00:00+00:00,False,True,False,False,False,False,-75.69382301381505,3.889098284747844
812,La Linda,POINT Z (-75.70041921049175 3.906752853578131 0),,2014-12-05T00:00:00+00:00,False,True,False,False,False,False,-75.70041921049175,3.906752853578131
813,Berlín,POINT Z (-75.70227778852397 3.909320393985291 0),,2014-12-05T00:00:00+00:00,False,True,False,False,False,False,-75.70227778852397,3.909320393985291
814,Hacienda Luna Park,POINT Z (-75.69245472401576 3.925661237897258 0),Hacienda,2014-12-05T00:00:00+00:00,False,True,False,False,False,False,-75.69245472401576,3.925661237897258
815,Versalles,POINT Z (-75.68747439157576 3.916486654476706 0),,2014-12-05T00:00:00+00:00,False,True,False,False,False,False,-75.68747439157576,3.916486654476706
816,Las Abreas,POINT Z (-75.67425127036194 3.89969754667463 0),,2014-12-05T00:00:00+00:00,False,True,False,False,False,False,-75.67425127036194,3.89969754667463
817,La Palma,POINT Z (-75.67821633730217 3.890716425859528 0),,2014-12-05T00:00:00+00:00,False,True,False,False,False,False,-75.67821633730217,3.890716425859528
818,El Cairo,POINT Z (-75.67383355377822 3.884249393436478 0),,2014-12-05T00:00:00+00:00,False,True,False,False,False,False,-75.67383355377822,3.8842493934364777
819,Hacienda El Cairo,POINT Z (-75.67288641561495 3.883269473512271 0),Hacienda,2014-12-05T00:00:00+00:00,False,True,False,False,False,False,-75.67288641561495,3.8832694735122706
820,El Rocio,POINT Z (-75.69048860179132 3.882424050028409 0),,2014-12-05T00:00:00+00:00,False,True,False,False,False,False,-75.69048860179132,3.8824240500284093
821,Hacienda La Esmeralda,POINT Z (-75.67782515038402 3.873378860094979 0),Hacienda,2014-12-05T00:00:00+00:00,False,True,False,False,False,False,-75.67782515038402,3.873378860094979
822,El Placer,POINT Z (-75.6666416728488 3.877487601327319 0),,2014-12-05T00:00:00+00:00,False,True,False,False,False,False,-75.6666416728488,3.8774876013273194
823,Normandía,POINT Z (-75.65535731083635 3.879604123635232 0),,2014-12-05T00:00:00+00:00,False,True,False,False,False,False,-75.65535731083635,3.879604123635232
824,La Estación,POINT Z (-75.67057754666369 3.889091012588929 0),,2014-12-05T00:00:00+00:00,False,True,False,False,False,False,-75.6705775466637,3.889091012588929
825,La Tribuna,POINT Z (-75.65776560278307 3.893820020960011 0),,2014-12-05T00:00:00+00:00,False,True,False,False,False,False,-75.65776560278307,3.893820020960011
826,La Cumbre,POINT Z (-75.66335582954724 3.893429372236405 0),,2014-12-05T00:00:00+00:00,False,True,False,False,False,False,-75.66335582954724,3.893429372236405
827,Las Villas,POINT Z (-75.66789473333529 3.896356645272729 0),,2014-12-05T00:00:00+00:00,True,True,False,False,False,False,-75.66789473333529,3.8963566452727294
828,Las Bolsas,POINT Z (-75.64182589031275 3.895875547618609 0),,2014-12-05T00:00:00+00:00,True,True,False,False,False,False,-75.64182589031275,3.8958755476186093
829,Balsora,POINT Z (-75.6422658064748 3.885572332272558 0),,2014-12-05T00:00:00+00:00,False,True,False,False,False,False,-75.6422658064748,3.8855723322725577
830,Maraveles,POINT Z (-75.64368285623604 3.882349610828733 0),,2014-12-05T00:00:00+00:00,False,True,False,False,False,False,-75.64368285623604,3.882349610828733
831,El Rocío,POINT Z (-75.65165987895737 3.875936998950953 0),,2014-12-05T00:00:00+00:00,False,True,False,False,False,False,-75.65165987895737,3.8759369989509533
832,La Cumbre,POINT Z (-75.64629302244219 3.877824234747669 0),,2014-12-05T00:00:00+00:00,False,True,False,False,False,False,-75.6462930224422,3.8778242347476692
833,El Jordán,POINT Z (-75.63639488140115 3.874244954314095 0),,2014-12-05T00:00:00+00:00,False,True,False,False,False,False,-75.63639488140115,3.8742449543140953
834,El Mirador,POINT Z (-75.62351020294108 3.874122340357763 0),,2014-12-05T00:00:00+00:00,False,True,False,False,False,False,-75.62351020294108,3.874122340357763
835,Manzanares,POINT Z (-75.63384555182695 3.880031336277787 0),,2014-12-05T00:00:00+00:00,True,True,False,False,False,False,-75.63384555182695,3.880031336277787
836,El Pesar,POINT Z (-75.62214422954351 3.889877873808897 0),,2014-12-05T00:00:00+00:00,True,True,False,False,False,False,-75.62214422954351,3.889877873808897
837,Peñaranda,POINT Z (-75.60633187882544 3.88215323028707 0),,2014-12-05T00:00:00+00:00,True,True,False,False,False,False,-75.60633187882544,3.88215323028707
838,La Meseta,POINT Z (-75.71006290194229 3.924518587223444 0),,2014-12-05T00:00:00+00:00,False,True,False,False,False,False,-75.7100629019423,3.9245185872234445
839,La Cabaña,POINT Z (-75.72457050587388 3.921786904704696 0),,2014-12-05T00:00:00+00:00,False,True,False,False,False,False,-75.72457050587388,3.9217869047046965
840,Argentina,POINT Z (-75.71535271684058 3.919724797958956 0),,2014-12-05T00:00:00+00:00,True,True,False,False,False,False,-75.71535271684058,3.9197247979589562
841,El Mirador,POINT Z (-75.7088077443249 3.90965897783301 0),,2014-12-05T00:00:00+00:00,False,True,False,False,False,False,-75.7088077443249,3.90965897783301
842,Santa Inés,POINT Z (-75.66478263246088 3.882625475872662 0),,2014-12-05T00:00:00+00:00,False,True,False,False,False,False,-75.66478263246088,3.8826254758726617
843,El Tachuelo,POINT Z (-75.68336747016231 3.88648022966037 0),,2014-12-05T00:00:00+00:00,False,True,False,False,False,False,-75.68336747016231,3.8864802296603704
844,Buenos Aires,POINT Z (-75.68719325538069 3.892036838698255 0),,2014-12-05T00:00:00+00:00,False,True,False,False,False,False,-75.68719325538069,3.8920368386982553
845,Begonia,POINT Z (-75.70204855255382 3.912164326811035 0),,2014-12-05T00:00:00+00:00,False,True,False,False,False,False,-75.70204855255382,3.9121643268110353
846,San Isidro,POINT Z (-75.69505776310567 3.909463052728336 0),,2014-12-05T00:00:00+00:00,False,True,False,False,False,False,-75.69505776310567,3.9094630527283356
847,El Almorzadero,POINT Z (-75.67405205375442 3.950968372325508 0),,2014-12-05T00:00:00+00:00,False,True,False,False,False,False,-75.67405205375442,3.950968372325508
848,Hacienda San José,POINT Z (-75.69154819055738 3.902334920516937 0),Hacienda,2014-12-05T00:00:00+00:00,False,True,False,False,False,False,-75.69154819055738,3.9023349205169366
849,Mameyal,POINT Z (-75.68352841650156 3.903706693047324 0),,2014-12-05T00:00:00+00:00,True,True,False,False,False,False,-75.68352841650156,3.903706693047324
850,El Otún,POINT Z (-75.72037494212893 3.926253126938444 0),,2014-12-05T00:00:00+00:00,False,True,False,False,False,False,-75.72037494212893,3.926253126938444
851,Dios te de,POINT Z (-75.4175786020609 3.869590999565331 0),,2015-03-05T00:00:00+00:00,False,True,False,False,False,False,-75.4175786020609,3.8695909995653315
852,El Pulpito,POINT Z (-75.41108700473808 3.865838776359789 0),,2015-03-05T00:00:00+00:00,False,True,False,False,False,False,-75.41108700473808,3.8658387763597886
853,El Girasol,POINT Z (-75.41072153068617 3.868531381267558 0),,2015-03-05T00:00:00+00:00,False,True,False,False,False,False,-75.41072153068617,3.8685313812675584
854,Maco Alto,POINT Z (-75.40757767471118 3.867533783801939 0),,2015-03-05T00:00:00+00:00,False,True,False,False,False,False,-75.40757767471118,3.8675337838019392
855,Los Naranjos,POINT Z (-75.41128586070465 3.862979342554 0),,2015-03-05T00:00:00+00:00,False,True,False,False,False,False,-75.41128586070465,3.8629793425539996
856,El Paraíso,POINT Z (-75.4085216068343 3.86833062647119 0),,2015-03-05T00:00:00+00:00,False,True,False,False,False,False,-75.4085216068343,3.8683306264711903
857,Altamira,POINT Z (-75.40146406004774 3.862908377953532 0),,2015-03-05T00:00:00+00:00,False,True,False,False,False,False,-75.40146406004774,3.862908377953532
858,El Roble,POINT Z (-75.41077977837629 3.864278689839374 0),,2015-03-05T00:00:00+00:00,True,True,False,False,False,False,-75.4107797783763,3.864278689839374
859,Las Toldas,POINT Z (-75.34828864858122 3.856630712103374 0),,2015-03-05T00:00:00+00:00,False,True,False,False,False,False,-75.34828864858122,3.856630712103374
860,El Diviso,POINT Z (-75.36137543683171 3.868468921386473 0),,2015-03-05T00:00:00+00:00,False,True,False,False,False,False,-75.36137543683171,3.8684689213864734
861,Buenos Aires,POINT Z (-75.36137304921058 3.866882115855016 0),,2015-03-05T00:00:00+00:00,False,True,False,False,False,False,-75.36137304921058,3.866882115855016
862,La Palmita,POINT Z (-75.36039184366439 3.864085806342604 0),,2015-03-05T00:00:00+00:00,False,True,False,False,False,False,-75.36039184366439,3.864085806342604
863,La Pedregosa,POINT Z (-75.36257472824229 3.855677616065789 0),,2015-03-05T00:00:00+00:00,False,True,False,False,False,False,-75.3625747282423,3.8556776160657886
864,El Guayabito,POINT Z (-75.36979837920961 3.856293194294689 0),,2015-03-05T00:00:00+00:00,False,True,False,False,False,False,-75.36979837920961,3.856293194294689
865,La Laguna,POINT Z (-75.36963356039598 3.860709357098171 0),Laguna,2015-03-05T00:00:00+00:00,False,True,False,False,False,False,-75.36963356039598,3.8607093570981705
866,El Cauchito,POINT Z (-75.37490814946605 3.853779914595738 0),,2015-03-05T00:00:00+00:00,False,True,False,False,False,False,-75.37490814946605,3.853779914595738
867,Castañales,POINT Z (-75.3718439492696 3.862733201768395 0),,2015-03-05T00:00:00+00:00,False,True,False,False,False,False,-75.3718439492696,3.862733201768395
868,Chilgua,POINT Z (-75.38497203608709 3.866843325166934 0),,2015-03-05T00:00:00+00:00,False,True,False,False,False,False,-75.38497203608709,3.866843325166934
869,El Cedro,POINT Z (-75.36828144820227 3.866954245870754 0),,2015-03-05T00:00:00+00:00,False,True,False,False,False,False,-75.36828144820227,3.8669542458707538
870,Pueblito,POINT Z (-75.39393734367538 3.862197863296617 0),,2015-03-05T00:00:00+00:00,False,True,False,False,False,False,-75.39393734367538,3.8621978632966174
871,Los Aguacates,POINT Z (-75.39237723426351 3.854728278472478 0),,2015-03-05T00:00:00+00:00,False,True,False,False,False,False,-75.3923772342635,3.8547282784724777
872,Costa Rica,POINT Z (-75.40084128169956 3.85386952784638 0),,2015-03-05T00:00:00+00:00,False,True,False,False,False,False,-75.40084128169956,3.8538695278463804
873,Los Delirios,POINT Z (-75.40898760123378 3.853684535320417 0),,2015-03-05T00:00:00+00:00,False,True,False,False,False,False,-75.40898760123378,3.853684535320417
874,La Despensa,POINT Z (-75.40987946616524 3.855765782795688 0),,2015-03-05T00:00:00+00:00,True,True,False,False,False,False,-75.40987946616524,3.8557657827956877
875,El Gusano,POINT Z (-75.40254022508856 3.858110480712401 0),,2015-03-05T00:00:00+00:00,False,True,False,False,False,False,-75.40254022508856,3.858110480712401
876,La Rivera,POINT Z (-75.408169860256 3.859164517841489 0),,2015-03-05T00:00:00+00:00,False,True,False,False,False,False,-75.408169860256,3.8591645178414886
877,La Florida,POINT Z (-75.40617346206834 3.861267159897847 0),,2015-03-05T00:00:00+00:00,False,True,False,False,False,False,-75.40617346206834,3.8612671598978467
878,El Retiro,POINT Z (-75.40877036611086 3.861853011097584 0),,2015-03-05T00:00:00+00:00,False,True,False,False,False,False,-75.40877036611086,3.8618530110975837
879,Marabeles,POINT Z (-75.40923689491214 3.861100644139567 0),,2015-03-05T00:00:00+00:00,False,True,False,False,False,False,-75.40923689491214,3.8611006441395666
880,El Placer,POINT Z (-75.41043725289585 3.860288838355792 0),,2015-03-05T00:00:00+00:00,False,True,False,False,False,False,-75.41043725289585,3.8602888383557916
881,Las Cruces,POINT Z (-75.40010451201287 3.870908832140355 0),,2015-03-05T00:00:00+00:00,True,True,False,False,False,False,-75.40010451201287,3.870908832140355
882,Honduras,POINT Z (-75.39641993442336 3.870022024329564 0),,2015-03-05T00:00:00+00:00,True,True,False,False,False,False,-75.39641993442336,3.8700220243295638
883,La Armenia,POINT Z (-75.41601379056512 3.864270504798594 0),,2015-03-05T00:00:00+00:00,False,True,False,False,False,False,-75.41601379056512,3.8642705047985944
884,El Jardín,POINT Z (-75.41477282097981 3.857952455929513 0),,2015-03-05T00:00:00+00:00,False,True,False,False,False,False,-75.4147728209798,3.857952455929513
885,La Fortuna,POINT Z (-75.41655073780493 3.857760736399171 0),,2015-03-05T00:00:00+00:00,False,True,False,False,False,False,-75.41655073780493,3.8577607363991713
886,Delicias,POINT Z (-75.41536036163575 3.856450956512727 0),,2015-03-05T00:00:00+00:00,False,True,False,False,False,False,-75.41536036163575,3.8564509565127265
887,La Dalia,POINT Z (-75.41289880928839 3.856828370572956 0),,2015-03-05T00:00:00+00:00,False,True,False,False,False,False,-75.4128988092884,3.856828370572956
888,El Mirador,POINT Z (-75.42470191326689 3.854800355599004 0),,2015-03-05T00:00:00+00:00,False,True,False,False,False,False,-75.42470191326689,3.8548003555990045
889,El Tesoro,POINT Z (-75.42462758463154 3.851238183417856 0),,2015-03-05T00:00:00+00:00,False,True,False,False,False,False,-75.42462758463154,3.851238183417856
890,San Lorenzo,POINT Z (-75.4243329192626 3.850396816418777 0),,2015-03-05T00:00:00+00:00,False,True,False,False,False,False,-75.4243329192626,3.8503968164187765
891,El Guamito,POINT Z (-75.42266753093496 3.848407109727157 0),,2015-03-05T00:00:00+00:00,False,True,False,False,False,False,-75.42266753093496,3.8484071097271575
892,El Limón,POINT Z (-75.41802639066289 3.84612745141839 0),,2015-03-05T00:00:00+00:00,False,True,False,False,False,False,-75.41802639066289,3.8461274514183903
893,Buenavista,POINT Z (-75.41038455612514 3.845480023927918 0),,2015-03-05T00:00:00+00:00,False,True,False,False,False,False,-75.41038455612514,3.845480023927918
894,El Jardín,POINT Z (-75.42167455442461 3.840915660390225 0),,2015-03-05T00:00:00+00:00,False,True,False,False,False,False,-75.42167455442461,3.840915660390225
895,Pueblito,POINT Z (-75.41790028927063 3.840580354062033 0),,2015-03-05T00:00:00+00:00,False,True,False,False,False,False,-75.41790028927063,3.840580354062033
896,Pomorroso,POINT Z (-75.41850185191066 3.841168693209942 0),Morro,2015-03-05T00:00:00+00:00,False,True,False,False,False,False,-75.41850185191066,3.8411686932099425
897,El Silencio,POINT Z (-75.40684370863511 3.851867276824215 0),,2015-03-05T00:00:00+00:00,False,True,False,False,False,False,-75.40684370863511,3.8518672768242155
898,La Albania,POINT Z (-75.40728125180347 3.844953012205912 0),,2015-03-05T00:00:00+00:00,False,True,False,False,False,False,-75.40728125180347,3.8449530122059117
899,El Arroyo,POINT Z (-75.39712046787609 3.847989910341028 0),,2015-03-05T00:00:00+00:00,True,True,False,False,False,False,-75.39712046787609,3.8479899103410276
900,El Espejo,POINT Z (-75.39181403949745 3.851437999313136 0),,2015-03-05T00:00:00+00:00,False,True,False,False,False,False,-75.39181403949745,3.851437999313136
901,Buenavista,POINT Z (-75.3894924973484 3.836813066897478 0),,2015-03-05T00:00:00+00:00,False,True,False,False,False,False,-75.3894924973484,3.8368130668974785
902,El Volcán,POINT Z (-75.40007434050493 3.838069207744305 0),,2015-03-05T00:00:00+00:00,False,True,False,False,False,False,-75.40007434050493,3.8380692077443053
903,La Tarabita,POINT Z (-75.39473161953983 3.836663776568662 0),,2015-03-05T00:00:00+00:00,False,True,False,False,False,False,-75.39473161953983,3.836663776568662
904,La Palma,POINT Z (-75.40901010080799 3.83566684687183 0),,2015-03-05T00:00:00+00:00,False,True,False,False,False,False,-75.40901010080799,3.83566684687183
905,La Tigrera,POINT Z (-75.40978606518675 3.838744789099439 0),,2015-03-05T00:00:00+00:00,False,True,False,False,False,False,-75.40978606518675,3.8387447890994393
906,Miraflores,POINT Z (-75.37604301539216 3.85141565032882 0),,2015-03-05T00:00:00+00:00,False,True,False,False,False,False,-75.37604301539216,3.85141565032882
907,Los Planes,POINT Z (-75.37474873127606 3.84998810764911 0),,2015-03-05T00:00:00+00:00,False,True,False,False,False,False,-75.37474873127606,3.8499881076491103
908,El Maquito,POINT Z (-75.37127509252173 3.85005923834355 0),,2015-03-05T00:00:00+00:00,False,True,False,False,False,False,-75.37127509252173,3.8500592383435497
909,El Totumo,POINT Z (-75.3711414808617 3.848385396791516 0),,2015-03-05T00:00:00+00:00,False,True,False,False,False,False,-75.3711414808617,3.848385396791516
910,El Balso,POINT Z (-75.36708974621791 3.843839648032076 0),,2015-03-05T00:00:00+00:00,False,True,False,False,False,False,-75.36708974621791,3.8438396480320765
911,El Curo,POINT Z (-75.36871242702259 3.839510994506612 0),,2015-03-05T00:00:00+00:00,False,True,False,False,False,False,-75.36871242702259,3.839510994506612
912,El Maquito,POINT Z (-75.37391386852518 3.836568814052981 0),,2015-03-05T00:00:00+00:00,False,True,False,False,False,False,-75.37391386852518,3.836568814052981
913,El Maco,POINT Z (-75.37639574258631 3.84320477809326 0),,2015-03-05T00:00:00+00:00,False,True,False,False,False,False,-75.37639574258631,3.8432047780932597
914,El Volcán,POINT Z (-75.35453773106887 3.849715779599091 0),,2015-03-05T00:00:00+00:00,False,True,False,False,False,False,-75.35453773106887,3.8497157795990913
915,La Peñonosa,POINT Z (-75.35795819412424 3.835857424823583 0),,2015-03-05T00:00:00+00:00,False,True,False,False,False,False,-75.35795819412424,3.8358574248235833
916,Santa Lucía,POINT Z (-75.32123568798934 3.84251882067521 0),,2015-03-05T00:00:00+00:00,False,True,False,False,False,False,-75.32123568798934,3.8425188206752097
917,El Agrado,POINT Z (-75.30153730121498 3.843340190087218 0),,2015-03-05T00:00:00+00:00,False,True,False,False,False,False,-75.30153730121498,3.8433401900872184
918,Casa de Tumbili,POINT Z (-75.30805071926638 3.839170012011993 0),,2015-03-05T00:00:00+00:00,False,True,False,False,False,False,-75.30805071926638,3.839170012011993
919,Buenos Aires,POINT Z (-75.33310464385129 3.789360492889503 0),,2015-03-05T00:00:00+00:00,False,True,False,False,False,False,-75.33310464385129,3.789360492889503
920,Yaguara,POINT Z (-75.34263387747231 3.784726005720382 0),,2015-03-05T00:00:00+00:00,False,True,False,False,False,False,-75.34263387747231,3.784726005720382
921,El Bosque,POINT Z (-75.34536868999301 3.783663744585745 0),,2015-03-05T00:00:00+00:00,False,True,False,False,False,False,-75.34536868999301,3.783663744585745
922,El Sendero,POINT Z (-75.347651331248 3.783188531179867 0),,2015-03-05T00:00:00+00:00,False,True,False,False,False,False,-75.347651331248,3.783188531179867
923,El Dinde,POINT Z (-75.3481379927813 3.789147099408352 0),,2015-03-05T00:00:00+00:00,False,True,False,False,False,False,-75.3481379927813,3.7891470994083525
924,Los Laureles,POINT Z (-75.34641691379775 3.790307523410458 0),,2015-03-05T00:00:00+00:00,False,True,False,False,False,False,-75.34641691379775,3.790307523410458
925,La Primavera,POINT Z (-75.3451635241497 3.789278601476603 0),,2015-03-05T00:00:00+00:00,False,True,False,False,False,False,-75.3451635241497,3.7892786014766027
926,Hacienda Mejico,POINT Z (-75.35881616934974 3.787822859485189 0),Hacienda,2015-03-05T00:00:00+00:00,False,True,False,False,False,False,-75.35881616934974,3.7878228594851886
927,La Morel,POINT Z (-75.37944537762738 3.788665460360381 0),,2015-03-05T00:00:00+00:00,False,True,False,False,False,False,-75.37944537762738,3.788665460360381
928,El Paraíso,POINT Z (-75.37829963199225 3.787404955617049 0),,2015-03-05T00:00:00+00:00,False,True,False,False,False,False,-75.37829963199225,3.7874049556170495
929,El Guayco,POINT Z (-75.37668324064526 3.783593735941622 0),,2015-03-05T00:00:00+00:00,False,True,False,False,False,False,-75.37668324064526,3.7835937359416216
930,Los Pijaos,POINT Z (-75.37420130794744 3.782919456245187 0),,2015-03-05T00:00:00+00:00,False,True,False,False,False,False,-75.37420130794744,3.782919456245187
931,Rincón Hondo,POINT Z (-75.37374661813405 3.783836365745432 0),,2015-03-05T00:00:00+00:00,False,True,False,False,False,False,-75.37374661813405,3.7838363657454317
932,El Espejo,POINT Z (-75.38962594274099 3.795262937451731 0),,2015-03-05T00:00:00+00:00,False,True,False,False,False,False,-75.38962594274099,3.7952629374517306
933,El Silencio,POINT Z (-75.40144380937004 3.794479978480291 0),,2015-03-05T00:00:00+00:00,False,True,False,False,False,False,-75.40144380937004,3.794479978480291
934,El Salado,POINT Z (-75.40228627038161 3.796659277780635 0),,2015-03-05T00:00:00+00:00,False,True,False,False,False,False,-75.40228627038161,3.7966592777806354
935,Silvania,POINT Z (-75.40581752504683 3.792925864569947 0),,2015-03-05T00:00:00+00:00,False,True,False,False,False,False,-75.40581752504683,3.7929258645699466
936,Buenos Aires,POINT Z (-75.40817202640548 3.788012007283724 0),,2015-03-05T00:00:00+00:00,False,True,False,False,False,False,-75.40817202640548,3.7880120072837236
937,La Estación,POINT Z (-75.41974770952 3.796872152842057 0),,2015-03-05T00:00:00+00:00,False,True,False,False,False,False,-75.41974770952,3.796872152842057
938,La Miranda,POINT Z (-75.41946842223301 3.793207751514 0),,2015-03-05T00:00:00+00:00,False,True,False,False,False,False,-75.41946842223301,3.7932077515139997
939,Buenavista,POINT Z (-75.42644518728045 3.794656683407148 0),,2015-03-05T00:00:00+00:00,False,True,False,False,False,False,-75.42644518728045,3.7946566834071485
940,Los Curos,POINT Z (-75.42651005969259 3.793295550248446 0),,2015-03-05T00:00:00+00:00,False,True,False,False,False,False,-75.42651005969259,3.7932955502484464
941,La Peninsula,POINT Z (-75.29334491844395 3.817878799445758 0),,2015-03-05T00:00:00+00:00,False,True,False,False,False,False,-75.29334491844395,3.8178787994457584
942,La Vigonia,POINT Z (-75.33453922005914 3.790947419999422 0),,2015-03-05T00:00:00+00:00,False,True,False,False,False,False,-75.33453922005914,3.7909474199994224
943,Las Acacias,POINT Z (-75.33821978408631 3.79541353523774 0),,2015-03-05T00:00:00+00:00,False,True,False,False,False,False,-75.3382197840863,3.7954135352377403
944,Salzañita,POINT Z (-75.33742567146854 3.794211084338096 0),,2015-03-05T00:00:00+00:00,False,True,False,False,False,False,-75.33742567146854,3.7942110843380963
945,La Arandia,POINT Z (-75.33992559170794 3.784499255148335 0),,2015-03-05T00:00:00+00:00,False,True,False,False,False,False,-75.33992559170794,3.784499255148335
946,Las Pitas,POINT Z (-75.33777783376506 3.787165224575135 0),,2015-03-05T00:00:00+00:00,False,True,False,False,False,False,-75.33777783376506,3.787165224575135
947,El Capitolio,POINT Z (-75.3397688487545 3.787472926271574 0),,2015-03-05T00:00:00+00:00,False,True,False,False,False,False,-75.3397688487545,3.7874729262715743
948,El Recreo,POINT Z (-75.33865078646032 3.789435283602719 0),,2015-03-05T00:00:00+00:00,False,True,False,False,False,False,-75.33865078646032,3.7894352836027188
949,La Esmeralda,POINT Z (-75.34163542810664 3.78715369539405 0),,2015-03-05T00:00:00+00:00,False,True,False,False,False,False,-75.34163542810664,3.7871536953940503
950,La Florida,POINT Z (-75.34387351821907 3.783725055592825 0),,2015-03-05T00:00:00+00:00,False,True,False,False,False,False,-75.34387351821907,3.7837250555928246
951,Ventaquemada,POINT Z (-75.29485455862779 3.828918866517468 0),,2015-03-05T00:00:00+00:00,False,True,False,False,False,False,-75.29485455862779,3.828918866517468
952,Los Manguitos,POINT Z (-75.29884214084217 3.82616927777049 0),,2015-03-05T00:00:00+00:00,False,True,False,False,False,False,-75.29884214084217,3.8261692777704903
953,El Totumo,POINT Z (-75.29445668338266 3.825056179988474 0),,2015-03-05T00:00:00+00:00,False,True,False,False,False,False,-75.29445668338266,3.825056179988474
954,La Florida,POINT Z (-75.29887603909056 3.822013423597595 0),,2015-03-05T00:00:00+00:00,False,True,False,False,False,False,-75.29887603909056,3.822013423597595
955,Los Naranjos,POINT Z (-75.29722100465814 3.819118707121545 0),,2015-03-05T00:00:00+00:00,False,True,False,False,False,False,-75.29722100465814,3.8191187071215453
956,Chilapa,POINT Z (-75.31395925768744 3.828480450348189 0),,2015-03-05T00:00:00+00:00,False,True,False,False,False,False,-75.31395925768744,3.8284804503481893
957,El Rodeo,POINT Z (-75.3225169188662 3.822459139956539 0),,2015-03-05T00:00:00+00:00,False,True,False,False,False,False,-75.3225169188662,3.822459139956539
958,Los Jardines,POINT Z (-75.32457266162599 3.820418221856984 0),,2015-03-05T00:00:00+00:00,False,True,False,False,False,False,-75.324572661626,3.8204182218569835
959,El Recreo,POINT Z (-75.32276615997057 3.819431859983789 0),,2015-03-05T00:00:00+00:00,False,True,False,False,False,False,-75.32276615997057,3.819431859983789
960,Pista de Aterrizaje,POINT Z (-75.32546340511767 3.824870507523721 0),,2015-03-05T00:00:00+00:00,False,True,False,False,False,False,-75.32546340511767,3.824870507523721
961,El Alto,POINT Z (-75.34077884210254 3.823734103929845 0),,2015-03-05T00:00:00+00:00,False,True,False,False,False,False,-75.34077884210254,3.823734103929845
962,El Azucaral,POINT Z (-75.35625909003269 3.827982797195458 0),,2015-03-05T00:00:00+00:00,False,True,False,False,False,False,-75.3562590900327,3.827982797195458
963,Barrialosa,POINT Z (-75.34607011883645 3.826023280010646 0),,2015-03-05T00:00:00+00:00,False,True,False,False,False,False,-75.34607011883645,3.8260232800106455
964,Buenos Aires,POINT Z (-75.35642956530621 3.823900711378862 0),,2015-03-05T00:00:00+00:00,False,True,False,False,False,False,-75.35642956530621,3.823900711378862
965,Los Delirios,POINT Z (-75.36601629668458 3.821915235501705 0),,2015-03-05T00:00:00+00:00,False,True,False,False,False,False,-75.36601629668458,3.8219152355017054
966,La Sierra,POINT Z (-75.36290393913424 3.833359752969073 0),,2015-03-05T00:00:00+00:00,True,True,False,False,False,False,-75.36290393913424,3.833359752969073
967,Caracolí,POINT Z (-75.3749541497057 3.830928855653722 0),,2015-03-05T00:00:00+00:00,False,True,False,False,False,False,-75.3749541497057,3.830928855653722
968,Las Lomitas,POINT Z (-75.37201405032405 3.822539810431542 0),,2015-03-05T00:00:00+00:00,True,True,False,False,False,False,-75.37201405032405,3.8225398104315422
969,Buenos Aires,POINT Z (-75.37178330050401 3.820203823739272 0),,2015-03-05T00:00:00+00:00,False,True,False,False,False,False,-75.371783300504,3.820203823739272
970,Valparaiso,POINT Z (-75.37836267066592 3.824883669439214 0),,2015-03-05T00:00:00+00:00,False,True,False,False,False,False,-75.37836267066592,3.824883669439214
971,El Delirio,POINT Z (-75.37971929161456 3.826242225483695 0),,2015-03-05T00:00:00+00:00,False,True,False,False,False,False,-75.37971929161456,3.8262422254836954
972,Las Brisas,POINT Z (-75.38990609253651 3.83007309295854 0),,2015-03-05T00:00:00+00:00,False,True,False,False,False,False,-75.3899060925365,3.8300730929585405
973,Chontaduro,POINT Z (-75.39437979094753 3.830104247471804 0),,2015-03-05T00:00:00+00:00,False,True,False,False,False,False,-75.39437979094753,3.830104247471804
974,Chontaduro,POINT Z (-75.39440701834566 3.830426456404353 0),,2015-03-05T00:00:00+00:00,False,True,False,False,False,False,-75.39440701834566,3.8304264564043526
975,Caracol,POINT Z (-75.39600281286448 3.830824567200819 0),,2015-03-05T00:00:00+00:00,False,True,False,False,False,False,-75.39600281286448,3.830824567200819
976,La Pedregosa,POINT Z (-75.39527529250873 3.832938221718594 0),,2015-03-05T00:00:00+00:00,False,True,False,False,False,False,-75.39527529250873,3.832938221718594
977,La Playa,POINT Z (-75.4012387890517 3.828176926923377 0),,2015-03-05T00:00:00+00:00,False,True,False,False,False,False,-75.4012387890517,3.8281769269233767
978,La Primavera,POINT Z (-75.41092226348128 3.831724500890505 0),,2015-03-05T00:00:00+00:00,False,True,False,False,False,False,-75.41092226348128,3.831724500890505
979,El Toche,POINT Z (-75.40771262469582 3.830780666610198 0),,2015-03-05T00:00:00+00:00,False,True,False,False,False,False,-75.40771262469582,3.8307806666101976
980,Cuchumbo,POINT Z (-75.40451648510624 3.827026067349222 0),,2015-03-05T00:00:00+00:00,False,True,False,False,False,False,-75.40451648510624,3.8270260673492222
981,Las Dantas,POINT Z (-75.41053480053858 3.82491346375066 0),,2015-03-05T00:00:00+00:00,False,True,False,False,False,False,-75.41053480053858,3.8249134637506597
982,Los Inciencios,POINT Z (-75.41113002513316 3.817948389174203 0),,2015-03-05T00:00:00+00:00,False,True,False,False,False,False,-75.41113002513316,3.817948389174203
983,Maracaibo,POINT Z (-75.3975347754069 3.820356490772558 0),,2015-03-05T00:00:00+00:00,False,True,False,False,False,False,-75.3975347754069,3.820356490772558
984,Peñalisa,POINT Z (-75.39764127676825 3.820069881079011 0),,2015-03-05T00:00:00+00:00,False,True,False,False,False,False,-75.39764127676825,3.8200698810790112
985,Vista Hermosa,POINT Z (-75.38240990620125 3.825617024012074 0),,2015-03-05T00:00:00+00:00,False,True,False,False,False,False,-75.38240990620125,3.825617024012074
986,El Guayco,POINT Z (-75.38054699765264 3.783745898304018 0),,2015-03-05T00:00:00+00:00,False,True,False,False,False,False,-75.38054699765264,3.7837458983040175
987,Aires del Balso,POINT Z (-75.36643027690317 3.847092287202149 0),,2015-03-05T00:00:00+00:00,False,True,False,False,False,False,-75.36643027690317,3.847092287202149
988,Las Planes El maquito,POINT Z (-75.37461984594661 3.850526201988423 0),,2015-03-05T00:00:00+00:00,False,True,False,False,False,False,-75.37461984594661,3.850526201988423
989,La Esmeralda,POINT Z (-75.37997380640967 3.852256999072028 0),,2015-03-05T00:00:00+00:00,False,True,False,False,False,False,-75.37997380640967,3.852256999072028
990,El Cedro,POINT Z (-75.39707062479606 3.827298079869481 0),,2015-03-05T00:00:00+00:00,False,True,False,False,False,False,-75.39707062479606,3.827298079869481
991,Los Guayabos,POINT Z (-75.38856922509517 3.870050726476545 0),,2015-03-05T00:00:00+00:00,False,True,False,False,False,False,-75.38856922509517,3.870050726476545
992,La Esperanza,POINT Z (-75.38646743569676 3.871189626945041 0),,2015-03-05T00:00:00+00:00,False,True,False,False,False,False,-75.38646743569676,3.8711896269450405
993,El Hoyo,POINT Z (-75.38706575977147 3.871274533081757 0),,2015-03-05T00:00:00+00:00,False,True,False,False,False,False,-75.38706575977147,3.871274533081757
994,Maracana,POINT Z (-75.38309945029849 3.871466919553483 0),,2015-03-05T00:00:00+00:00,False,True,False,False,False,False,-75.38309945029849,3.871466919553483
995,La Palma,POINT Z (-75.3878558923369 3.870696959362917 0),,2015-03-05T00:00:00+00:00,False,True,False,False,False,False,-75.3878558923369,3.8706969593629172
996,La Palmera,POINT Z (-75.39650260487311 3.862741465141368 0),,2015-03-05T00:00:00+00:00,False,True,False,False,False,False,-75.3965026048731,3.862741465141368
997,La Ceiba,POINT Z (-75.3970257489094 3.860971168670136 0),,2015-03-05T00:00:00+00:00,False,True,False,False,False,False,-75.3970257489094,3.8609711686701362
998,Las Brisas,POINT Z (-75.39547543312727 3.861633836706271 0),,2015-03-05T00:00:00+00:00,False,True,False,False,False,False,-75.39547543312727,3.861633836706271
999,El Consuelo,POINT Z (-75.39697157108019 3.859941256000542 0),,2015-03-05T00:00:00+00:00,False,True,False,False,False,False,-75.39697157108019,3.8599412560005417
1000,El Fraile,POINT Z (-75.39460342172291 3.85883571263258 0),,2015-03-05T00:00:00+00:00,False,True,False,False,False,False,-75.3946034217229,3.85883571263258
1001,Dos Aguas,POINT Z (-75.39265333811764 3.856012845696019 0),,2015-03-05T00:00:00+00:00,False,True,False,False,False,False,-75.39265333811764,3.856012845696019
1002,El Fraile,POINT Z (-75.3955041189125 3.851809197778273 0),,2015-03-05T00:00:00+00:00,False,True,False,False,False,False,-75.3955041189125,3.8518091977782727
1003,La Pradera,POINT Z (-75.41310409116554 3.855295564953327 0),,2015-03-05T00:00:00+00:00,False,True,False,False,False,False,-75.41310409116554,3.855295564953327
1004,El Engaño,POINT Z (-75.41499532099783 3.854077725915737 0),,2015-03-05T00:00:00+00:00,False,True,False,False,False,False,-75.41499532099783,3.8540777259157366
1005,La Reserva,POINT Z (-75.40829636155819 3.861025439369432 0),,2015-03-05T00:00:00+00:00,False,True,False,False,False,False,-75.40829636155819,3.8610254393694317
1006,La Pedregoza,POINT Z (-75.40872165856996 3.865731815733404 0),,2015-03-05T00:00:00+00:00,False,True,False,False,False,False,-75.40872165856996,3.865731815733404
1007,La Flor,POINT Z (-75.42159410200898 3.870584914825094 0),,2015-03-05T00:00:00+00:00,False,True,False,False,False,False,-75.42159410200898,3.870584914825094
1008,La Soledad,POINT Z (-75.41693476040832 3.868595060994007 0),,2015-03-05T00:00:00+00:00,False,True,False,False,False,False,-75.41693476040832,3.868595060994007
1009,Puesto de Salud,POINT Z (-75.33316015760043 3.811831311541804 0),Puesto de salud,2015-03-05T00:00:00+00:00,False,True,False,False,False,False,-75.33316015760043,3.811831311541804
1010,Colegio Enrique Olaya Herrera,POINT Z (-75.33145711280746 3.813153401328016 0),Colegio,2015-03-05T00:00:00+00:00,False,True,False,False,False,False,-75.33145711280746,3.813153401328016
1011,Nucleo Escolar Olaya Herrera,POINT Z (-75.32999709650471 3.811656233569011 0),,2015-03-05T00:00:00+00:00,False,True,False,False,False,False,-75.32999709650471,3.8116562335690105
1012,La Albania,POINT Z (-75.41816124592208 3.831833673459949 0),,2015-03-05T00:00:00+00:00,False,True,False,False,False,False,-75.41816124592208,3.831833673459949
1013,La Unión,POINT Z (-75.41439794205171 3.826319588808562 0),,2015-03-05T00:00:00+00:00,False,True,False,False,False,False,-75.4143979420517,3.826319588808562
1014,Miramar,POINT Z (-75.41325507660166 3.824907065725788 0),,2015-03-05T00:00:00+00:00,False,True,False,False,False,False,-75.41325507660166,3.8249070657257884
1015,La Palma,POINT Z (-75.41569141517431 3.821412237961054 0),,2015-03-05T00:00:00+00:00,False,True,False,False,False,False,-75.41569141517431,3.821412237961054
1016,La Palmera o Cucharal,POINT Z (-75.41811380181871 3.820423800994723 0),,2015-03-05T00:00:00+00:00,False,True,False,False,False,False,-75.4181138018187,3.8204238009947233
1017,El Horizonte,POINT Z (-75.41659638762592 3.818832841099 0),,2015-03-05T00:00:00+00:00,False,True,False,False,False,False,-75.41659638762592,3.818832841099
1018,Buenavista,POINT Z (-75.41514782547824 3.817369738943189 0),,2015-03-05T00:00:00+00:00,False,True,False,False,False,False,-75.41514782547824,3.8173697389431887
1019,El Paraíso,POINT Z (-75.42018686328116 3.825722379870974 0),,2015-03-05T00:00:00+00:00,False,True,False,False,False,False,-75.42018686328116,3.825722379870974
1020,La Copa,POINT Z (-75.42530129276641 3.825227976695701 0),,2015-03-05T00:00:00+00:00,False,True,False,False,False,False,-75.4253012927664,3.825227976695701
1021,El Guindo,POINT Z (-75.42361803134031 3.818025614013722 0),,2015-03-05T00:00:00+00:00,False,True,False,False,False,False,-75.42361803134031,3.8180256140137216
1022,Las Hondas,POINT Z (-75.42261381123446 3.823847741839778 0),,2015-03-05T00:00:00+00:00,False,True,False,False,False,False,-75.42261381123446,3.823847741839778
1023,El Paraíso,POINT Z (-75.42728359219116 3.815901550973454 0),,2015-03-05T00:00:00+00:00,False,True,False,False,False,False,-75.42728359219116,3.815901550973454
1024,La Alcancía,POINT Z (-75.42031603890497 3.816646505022056 0),,2015-03-05T00:00:00+00:00,False,True,False,False,False,False,-75.42031603890497,3.816646505022056
1025,El Bosque,POINT Z (-75.4207429245984 3.816090853774351 0),,2015-03-05T00:00:00+00:00,False,True,False,False,False,False,-75.4207429245984,3.816090853774351
1026,El Rodeo,POINT Z (-75.42438828438671 3.810750159295385 0),,2015-03-05T00:00:00+00:00,False,True,False,False,False,False,-75.42438828438671,3.8107501592953845
1027,La Ilusión,POINT Z (-75.42604492537673 3.810192576982748 0),,2015-03-05T00:00:00+00:00,False,True,False,False,False,False,-75.42604492537673,3.8101925769827476
1028,Alemania,POINT Z (-75.4173400472887 3.816919703604945 0),,2015-03-05T00:00:00+00:00,False,True,False,False,False,False,-75.4173400472887,3.816919703604945
1029,Monserrate,POINT Z (-75.41831272581851 3.812030761767765 0),,2015-03-05T00:00:00+00:00,False,True,False,False,False,False,-75.41831272581851,3.812030761767765
1030,El Alto,POINT Z (-75.41228569025725 3.810124574586321 0),,2015-03-05T00:00:00+00:00,False,True,False,False,False,False,-75.41228569025725,3.8101245745863213
1031,Dos Aguas,POINT Z (-75.41356624322235 3.807527355680373 0),,2015-03-05T00:00:00+00:00,False,True,False,False,False,False,-75.41356624322235,3.8075273556803735
1032,El Jardín,POINT Z (-75.41506218399844 3.806773115414574 0),,2015-03-05T00:00:00+00:00,False,True,False,False,False,False,-75.41506218399844,3.8067731154145736
1033,Guayabitos,POINT Z (-75.41347439800295 3.805755134547035 0),,2015-03-05T00:00:00+00:00,False,True,False,False,False,False,-75.41347439800295,3.805755134547035
1034,Alto Redondo,POINT Z (-75.41762330108249 3.803313913102357 0),,2015-03-05T00:00:00+00:00,False,True,False,False,False,False,-75.41762330108249,3.803313913102357
1035,Los Arboles,POINT Z (-75.41847800698788 3.802811307468256 0),,2015-03-05T00:00:00+00:00,False,True,False,False,False,False,-75.41847800698788,3.8028113074682564
1036,La Esperanza,POINT Z (-75.42370401364651 3.801561893468466 0),,2015-03-05T00:00:00+00:00,False,True,False,False,False,False,-75.42370401364651,3.801561893468466
1037,Filandia,POINT Z (-75.42753077905333 3.807881149709613 0),,2015-03-05T00:00:00+00:00,True,True,False,False,False,False,-75.42753077905333,3.807881149709613
1038,El Caribe,POINT Z (-75.40810208879573 3.809747332056471 0),,2015-03-05T00:00:00+00:00,True,True,False,False,False,False,-75.40810208879573,3.809747332056471
1039,Llano Grande,POINT Z (-75.39482456980522 3.815514364799649 0),,2015-03-05T00:00:00+00:00,False,True,False,False,False,False,-75.39482456980522,3.815514364799649
1040,Santa Lucía,POINT Z (-75.38807135222488 3.810184135311945 0),,2015-03-05T00:00:00+00:00,False,True,False,False,False,False,-75.38807135222488,3.8101841353119448
1041,Potrerito,POINT Z (-75.3881624715106 3.811508806683832 0),,2015-03-05T00:00:00+00:00,False,True,False,False,False,False,-75.3881624715106,3.8115088066838316
1042,La Estación,POINT Z (-75.38646512860603 3.804397431768864 0),,2015-03-05T00:00:00+00:00,False,True,False,False,False,False,-75.38646512860603,3.8043974317688645
1043,El Tesoro o El Guamito,POINT Z (-75.40220235886339 3.80227422305986 0),,2015-03-05T00:00:00+00:00,False,True,False,False,False,False,-75.40220235886339,3.8022742230598596
1044,La Mesta,POINT Z (-75.38315002270163 3.811030463072232 0),,2015-03-05T00:00:00+00:00,False,True,False,False,False,False,-75.38315002270163,3.8110304630722323
1045,El Paradero,POINT Z (-75.36566364056206 3.802007350690434 0),,2015-03-05T00:00:00+00:00,False,True,False,False,False,False,-75.36566364056206,3.8020073506904337
1046,El Talarco,POINT Z (-75.35551415356916 3.803353699076448 0),,2015-03-05T00:00:00+00:00,False,True,False,False,False,False,-75.35551415356916,3.8033536990764483
1047,El Guamal,POINT Z (-75.33977914032393 3.813049509017355 0),,2015-03-05T00:00:00+00:00,False,True,False,False,False,False,-75.33977914032393,3.8130495090173553
1048,Chipalo,POINT Z (-75.33397865664246 3.803852916199763 0),,2015-03-05T00:00:00+00:00,True,True,False,False,False,False,-75.33397865664246,3.8038529161997627
1049,San Isidro,POINT Z (-75.3367716474981 3.802850992483502 0),,2015-03-05T00:00:00+00:00,False,True,False,False,False,False,-75.3367716474981,3.8028509924835023
1050,El Guamal,POINT Z (-75.34141320177481 3.807314406014964 0),,2015-03-05T00:00:00+00:00,False,True,False,False,False,False,-75.34141320177481,3.8073144060149637
1051,El Aceituno,POINT Z (-75.34255975630074 3.801927614090294 0),,2015-03-05T00:00:00+00:00,False,True,False,False,False,False,-75.34255975630074,3.801927614090294
1052,Buenos Aires,POINT Z (-75.32334748798411 3.816437871164372 0),,2015-03-05T00:00:00+00:00,False,True,False,False,False,False,-75.32334748798411,3.816437871164372
1053,Tuquila,POINT Z (-75.31796474564533 3.813870354993542 0),,2015-03-05T00:00:00+00:00,False,True,False,False,False,False,-75.31796474564533,3.8138703549935418
1054,Zanja Honda,POINT Z (-75.29887911802807 3.815338893918278 0),Zanja,2015-03-05T00:00:00+00:00,False,True,False,False,False,False,-75.29887911802807,3.8153388939182777
1055,Las Palmas,POINT Z (-75.29488356436144 3.814638386176931 0),,2015-03-05T00:00:00+00:00,False,True,False,False,False,False,-75.29488356436144,3.8146383861769313
1056,El Diviso,POINT Z (-75.29430113197965 3.808242458801828 0),,2015-03-05T00:00:00+00:00,False,True,False,False,False,False,-75.29430113197965,3.808242458801828
1057,El Antojo,POINT Z (-75.30065906597545 3.795039370575005 0),,2015-03-05T00:00:00+00:00,False,True,False,False,False,False,-75.30065906597545,3.7950393705750054
1058,El Palmar,POINT Z (-75.29485575547669 3.787041823301037 0),,2015-03-05T00:00:00+00:00,False,True,False,False,False,False,-75.29485575547669,3.7870418233010374
1059,La Esperanza,POINT Z (-75.32557658795955 3.798126245648848 0),,2015-03-05T00:00:00+00:00,False,True,False,False,False,False,-75.32557658795955,3.798126245648848
1060,Puerta de Llano,POINT Z (-75.32855466177145 3.798160426817774 0),,2015-03-05T00:00:00+00:00,False,True,False,False,False,False,-75.32855466177145,3.798160426817774
1061,El Guayabal,POINT Z (-75.34536062136868 3.792085239337038 0),,2015-03-05T00:00:00+00:00,False,True,False,False,False,False,-75.34536062136868,3.792085239337038
1062,El Carmen,POINT Z (-75.34209486880535 3.791851813103948 0),,2015-03-05T00:00:00+00:00,False,True,False,False,False,False,-75.34209486880535,3.7918518131039476
1063,Malbarosa,POINT Z (-75.34189681193736 3.79364792816166 0),,2015-03-05T00:00:00+00:00,False,True,False,False,False,False,-75.34189681193736,3.79364792816166
1064,Capote,POINT Z (-75.33989255207413 3.795318419012368 0),,2015-03-05T00:00:00+00:00,False,True,False,False,False,False,-75.33989255207413,3.795318419012368
1065,Los Cambulos,POINT Z (-75.3357472716276 3.796334346155365 0),,2015-03-05T00:00:00+00:00,False,True,False,False,False,False,-75.3357472716276,3.7963343461553647
1066,Llano Grande,POINT Z (-75.33092022266746 3.796145076386952 0),,2015-03-05T00:00:00+00:00,False,True,False,False,False,False,-75.33092022266746,3.7961450763869524
1067,El Diviso,POINT Z (-75.33128153274433 3.794982822546367 0),,2015-03-05T00:00:00+00:00,False,True,False,False,False,False,-75.33128153274433,3.794982822546367
1068,Los Mandarinos,POINT Z (-75.332518516467 3.792543820868305 0),,2015-03-05T00:00:00+00:00,False,True,False,False,False,False,-75.332518516467,3.792543820868305
1069,Bueno Aires,POINT Z (-75.33279787412746 3.791840807506503 0),,2015-03-05T00:00:00+00:00,False,True,False,False,False,False,-75.33279787412746,3.791840807506503
1070,El Recuerdo,POINT Z (-75.33283127752755 3.791612096074061 0),,2015-03-05T00:00:00+00:00,False,True,False,False,False,False,-75.33283127752755,3.7916120960740614
1071,San José,POINT Z (-75.33457106401681 3.786402023165998 0),,2015-03-05T00:00:00+00:00,False,True,False,False,False,False,-75.33457106401681,3.7864020231659983
1072,Taravita,POINT Z (-75.33460601590318 3.785339134228193 0),,2015-03-05T00:00:00+00:00,False,True,False,False,False,False,-75.33460601590318,3.7853391342281935
1073,Los Llanos,POINT Z (-75.33568173642068 3.784934422261085 0),,2015-03-05T00:00:00+00:00,False,True,False,False,False,False,-75.33568173642068,3.7849344222610855
1074,La Meseta,POINT Z (-75.33633719331782 3.784053877261607 0),,2015-03-05T00:00:00+00:00,False,True,False,False,False,False,-75.33633719331782,3.7840538772616075
1075,El Diviso,POINT Z (-75.41864051607016 3.864833722812171 0),,2015-03-05T00:00:00+00:00,False,True,False,False,False,False,-75.41864051607016,3.864833722812171
1076,La Florida,POINT Z (-75.41656282219706 3.861024982651974 0),,2015-03-05T00:00:00+00:00,False,True,False,False,False,False,-75.41656282219706,3.861024982651974
1077,El Horizonte,POINT Z (-75.42245691209449 3.859835317521842 0),,2015-03-05T00:00:00+00:00,False,True,False,False,False,False,-75.42245691209449,3.859835317521842
1078,La Bella,POINT Z (-75.4097032032829 3.851018019454954 0),,2015-03-05T00:00:00+00:00,False,True,False,False,False,False,-75.4097032032829,3.8510180194549544
1079,El Consuelo,POINT Z (-75.42056880308918 3.842871124409187 0),,2015-03-05T00:00:00+00:00,False,True,False,False,False,False,-75.42056880308918,3.8428711244091867
1080,La Unión,POINT Z (-75.42543734849809 3.841337969015103 0),,2015-03-05T00:00:00+00:00,False,True,False,False,False,False,-75.4254373484981,3.841337969015103
1081,Los Naranjos,POINT Z (-75.42063683161416 3.850908028506979 0),,2015-03-05T00:00:00+00:00,False,True,False,False,False,False,-75.42063683161416,3.8509080285069786
1082,El Madroño,POINT Z (-75.41115026086933 3.85219586035895 0),,2015-03-05T00:00:00+00:00,True,True,False,False,False,False,-75.41115026086933,3.85219586035895
1083,La Estrella,POINT Z (-75.4236745399072 3.846312920072829 0),,2015-03-05T00:00:00+00:00,False,True,False,False,False,False,-75.4236745399072,3.8463129200728288
1084,La Esperanza,POINT Z (-75.42430313305559 3.843108527248569 0),,2015-03-05T00:00:00+00:00,False,True,False,False,False,False,-75.42430313305559,3.843108527248569
1085,El Diamante,POINT Z (-75.41859447815716 3.852730407133723 0),,2015-03-05T00:00:00+00:00,False,True,False,False,False,False,-75.41859447815716,3.852730407133723
1086,El Oriente,POINT Z (-75.41911163949428 3.849165538732801 0),,2015-03-05T00:00:00+00:00,False,True,False,False,False,False,-75.41911163949428,3.8491655387328008
1087,La Puñada,POINT Z (-75.42498184470637 3.844923948536154 0),,2015-03-05T00:00:00+00:00,False,True,False,False,False,False,-75.42498184470637,3.844923948536154
1088,Picota La Puente,POINT Z (-75.3344779682656 3.86586967273141 0),,2015-03-05T00:00:00+00:00,False,True,False,False,False,False,-75.3344779682656,3.86586967273141
1089,La Virginia,POINT Z (-75.40598490833459 3.847220162071742 0),,2015-03-05T00:00:00+00:00,False,True,False,False,False,False,-75.40598490833459,3.847220162071742
1090,El Placer,POINT Z (-75.39005365672107 3.850959640341495 0),,2015-03-05T00:00:00+00:00,False,True,False,False,False,False,-75.39005365672107,3.8509596403414945
1091,Miramar,POINT Z (-75.3905078942223 3.848814352779436 0),,2015-03-05T00:00:00+00:00,False,True,False,False,False,False,-75.3905078942223,3.8488143527794363
1092,San Isidro,POINT Z (-75.38784416855378 3.852188531006788 0),,2015-03-05T00:00:00+00:00,False,True,False,False,False,False,-75.38784416855378,3.8521885310067883
1093,El Rastrojo,POINT Z (-75.40587978202298 3.840882350448472 0),,2015-03-05T00:00:00+00:00,False,True,False,False,False,False,-75.40587978202298,3.8408823504484717
1094,La Arboleda,POINT Z (-75.40672181996293 3.84298731166856 0),,2015-03-05T00:00:00+00:00,False,True,False,False,False,False,-75.40672181996293,3.84298731166856
1095,EL Guamito,POINT Z (-75.42330135487529 3.844035597485082 0),,2015-03-05T00:00:00+00:00,False,True,False,False,False,False,-75.42330135487529,3.8440355974850817
1096,Vista Hermosa,POINT Z (-75.41428111886246 3.849730038527551 0),,2015-03-05T00:00:00+00:00,False,True,False,False,False,False,-75.41428111886246,3.8497300385275506
1097,Las Violetas,POINT Z (-75.41638948997029 3.850729107360628 0),,2015-03-05T00:00:00+00:00,False,True,False,False,False,False,-75.41638948997029,3.8507291073606282
1098,Villa Hermosa,POINT Z (-75.41243862458117 3.846534827015396 0),,2015-03-05T00:00:00+00:00,False,True,False,False,False,False,-75.41243862458117,3.846534827015396
1099,La Esperanza,POINT Z (-75.40295420305721 3.847454668758866 0),,2015-03-05T00:00:00+00:00,False,True,False,False,False,False,-75.4029542030572,3.847454668758866
1100,El Diviso,POINT Z (-75.40224575594156 3.845445235472561 0),,2015-03-05T00:00:00+00:00,False,True,False,False,False,False,-75.40224575594156,3.845445235472561
1101,Castañal,POINT Z (-75.36972126412175 3.824710128633124 0),,2015-03-05T00:00:00+00:00,True,True,False,False,False,False,-75.36972126412175,3.824710128633124
1102,La Salida,POINT Z (-75.3903096250057 3.846940540818251 0),,2015-03-05T00:00:00+00:00,False,True,False,False,False,False,-75.3903096250057,3.846940540818251
1103,La Alvecia,POINT Z (-75.37375411738357 3.84835635347457 0),,2015-03-05T00:00:00+00:00,False,True,False,False,False,False,-75.37375411738357,3.8483563534745695
1104,Los Guasimos,POINT Z (-75.34936990781796 3.790367055051154 0),,2015-03-05T00:00:00+00:00,False,True,False,False,False,False,-75.34936990781796,3.790367055051154
1105,El Clavel,POINT Z (-75.4116194268551 3.782135256176553 0),,2015-03-05T00:00:00+00:00,True,True,False,False,False,False,-75.4116194268551,3.782135256176553
1106,El Campamento,POINT Z (-75.38618038508545 3.787907772517173 0),,2015-03-05T00:00:00+00:00,False,True,False,False,False,False,-75.38618038508545,3.7879077725171735
1107,La Bella,POINT Z (-75.42658711866947 3.841466148070489 0),,2015-03-05T00:00:00+00:00,False,True,False,False,False,False,-75.42658711866947,3.8414661480704893
1108,Francia,POINT Z (-75.42670301100971 3.84754107764475 0),,2015-03-05T00:00:00+00:00,False,True,False,False,False,False,-75.4267030110097,3.8475410776447503
1109,Ola Estación,POINT Z (-75.42501383442529 3.846916217939094 0),,2015-03-05T00:00:00+00:00,False,True,False,False,False,False,-75.42501383442529,3.8469162179390937
1110,Mayo,POINT Z (-75.38709631175958 3.854251194669097 0),,2015-03-05T00:00:00+00:00,False,True,False,False,False,False,-75.38709631175958,3.8542511946690974
1111,Las Hermosas,POINT Z (-75.40186809800011 3.869809082337276 0),,2015-03-05T00:00:00+00:00,False,True,False,False,False,False,-75.40186809800011,3.869809082337276
1112,La Profunda,POINT Z (-75.39398797951281 3.871416370040174 0),,2015-03-05T00:00:00+00:00,False,True,False,False,False,False,-75.39398797951281,3.8714163700401736
1113,Tetuán Calarca,POINT Z (-75.41799220695216 3.767927596988764 0),,2015-04-21T00:00:00+00:00,False,True,False,False,False,False,-75.41799220695216,3.767927596988764
1114,La Esperanza,POINT Z (-75.42072499399433 3.766118103768033 0),,2015-04-21T00:00:00+00:00,False,True,False,False,False,False,-75.42072499399433,3.7661181037680334
1115,La Ficha,POINT Z (-75.42211713545228 3.766686160368998 0),,2015-04-21T00:00:00+00:00,False,True,False,False,False,False,-75.42211713545228,3.766686160368998
1116,La Mesita,POINT Z (-75.42765956987918 3.766442764923096 0),,2015-04-21T00:00:00+00:00,False,True,False,False,False,False,-75.42765956987918,3.7664427649230965
1117,La Uníon,POINT Z (-75.41929052247878 3.774237471414667 0),,2015-04-21T00:00:00+00:00,False,True,False,False,False,False,-75.41929052247878,3.774237471414667
1118,Las Brisas,POINT Z (-75.4240962524748 3.738332001983184 0),,2015-04-21T00:00:00+00:00,False,True,False,False,False,False,-75.4240962524748,3.738332001983184
1119,Versalles,POINT Z (-75.30256373450017 3.748309757185226 0),,2015-04-21T00:00:00+00:00,False,True,False,False,False,False,-75.30256373450017,3.7483097571852255
1120,Pital,POINT Z (-75.30133261436514 3.76151975152868 0),,2015-04-21T00:00:00+00:00,False,True,False,False,False,False,-75.30133261436514,3.7615197515286796
1121,La Pradera,POINT Z (-75.30502389114336 3.771270960023963 0),,2015-04-21T00:00:00+00:00,False,True,False,False,False,False,-75.30502389114336,3.7712709600239633
1122,La Palizada,POINT Z (-75.30485440013086 3.771913070784292 0),,2015-04-21T00:00:00+00:00,False,True,False,False,False,False,-75.30485440013086,3.7719130707842923
1123,La Calera,POINT Z (-75.30215792702779 3.772929611139114 0),,2015-04-21T00:00:00+00:00,False,True,False,False,False,False,-75.30215792702779,3.7729296111391144
1124,El Guayabal,POINT Z (-75.30472810559793 3.772983030628451 0),,2015-04-21T00:00:00+00:00,False,True,False,False,False,False,-75.30472810559793,3.7729830306284513
1125,El Palmar,POINT Z (-75.30399181590353 3.774467504420006 0),,2015-04-21T00:00:00+00:00,False,True,False,False,False,False,-75.30399181590353,3.7744675044200062
1126,Las Manas,POINT Z (-75.30208164627713 3.779291363288614 0),,2015-04-21T00:00:00+00:00,False,True,False,False,False,False,-75.30208164627713,3.7792913632886136
1127,El Rodeo,POINT Z (-75.30147054510429 3.778921369776866 0),,2015-04-21T00:00:00+00:00,False,True,False,False,False,False,-75.3014705451043,3.7789213697768664
1128,El Salado,POINT Z (-75.30011149144694 3.77170581492694 0),,2015-04-21T00:00:00+00:00,False,True,False,False,False,False,-75.30011149144694,3.77170581492694
1129,El Recreo,POINT Z (-75.30093286501753 3.770135639949721 0),,2015-04-21T00:00:00+00:00,False,True,False,False,False,False,-75.30093286501753,3.7701356399497206
1130,La Buitrera,POINT Z (-75.3012125269709 3.767040005285694 0),,2015-04-21T00:00:00+00:00,True,True,False,False,False,False,-75.3012125269709,3.767040005285694
1131,Hacienda Guasimal,POINT Z (-75.30492710002004 3.691308379528681 0),Hacienda,2015-04-21T00:00:00+00:00,False,True,False,False,False,False,-75.30492710002004,3.6913083795286807
1132,La Bajada,POINT Z (-75.30198016331133 3.695891137231411 0),,2015-04-21T00:00:00+00:00,True,True,False,False,False,False,-75.30198016331133,3.6958911372314107
1133,Ajisal,POINT Z (-75.31055085973345 3.722994623938257 0),,2015-04-21T00:00:00+00:00,False,True,False,False,False,False,-75.31055085973345,3.7229946239382565
1134,Las Tapias,POINT Z (-75.41843219556718 3.729083842275418 0),,2015-04-21T00:00:00+00:00,False,True,False,False,False,False,-75.41843219556718,3.729083842275418
1135,Verbenales,POINT Z (-75.29341734665653 3.726113764720874 0),,2015-04-21T00:00:00+00:00,False,True,False,False,False,False,-75.29341734665653,3.7261137647208735
1136,La Guadua,POINT Z (-75.29279189798515 3.725601134299624 0),,2015-04-21T00:00:00+00:00,False,True,False,False,False,False,-75.29279189798515,3.7256011342996245
1137,Gramales ó Altagracia,POINT Z (-75.29368005306073 3.710594346519147 0),,2015-04-21T00:00:00+00:00,False,True,False,False,False,False,-75.29368005306073,3.710594346519147
1138,La Laguna,POINT Z (-75.29426887024304 3.71547176564094 0),Laguna,2015-04-21T00:00:00+00:00,False,True,False,False,False,False,-75.29426887024304,3.71547176564094
1139,Tamarco,POINT Z (-75.29781363259001 3.701559633649958 0),,2015-04-21T00:00:00+00:00,True,True,False,False,False,False,-75.29781363259,3.7015596336499583
1140,Buenavista,POINT Z (-75.29873337880588 3.699261887212895 0),,2015-04-21T00:00:00+00:00,False,True,False,False,False,False,-75.29873337880588,3.699261887212895
1141,Chimbirco,POINT Z (-75.29489050516277 3.692420546009482 0),,2015-04-21T00:00:00+00:00,False,True,False,False,False,False,-75.29489050516277,3.6924205460094823
1142,Hacienda Madroñal,POINT Z (-75.42312965928498 3.717447474003253 0),Hacienda,2015-04-21T00:00:00+00:00,False,True,False,False,False,False,-75.42312965928498,3.717447474003253
1143,El Tablazo,POINT Z (-75.4231037728253 3.709163872629531 0),,2015-04-21T00:00:00+00:00,False,True,False,False,False,False,-75.4231037728253,3.709163872629531
1144,El Tablazo,POINT Z (-75.41640570779261 3.700220209273801 0),,2015-04-21T00:00:00+00:00,False,True,False,False,False,False,-75.4164057077926,3.7002202092738012
1145,El Llano de La Palmita,POINT Z (-75.41168992010827 3.722960546701944 0),,2015-04-21T00:00:00+00:00,False,True,False,False,False,False,-75.41168992010827,3.722960546701944
1146,Las Tapias,POINT Z (-75.41728017813855 3.731530581142779 0),,2015-04-21T00:00:00+00:00,False,True,False,False,False,False,-75.41728017813855,3.7315305811427786
1147,Las Palmas,POINT Z (-75.40881430020681 3.736100851506124 0),,2015-04-21T00:00:00+00:00,False,True,False,False,False,False,-75.40881430020681,3.736100851506124
1148,El Paujil,POINT Z (-75.40999856954225 3.751594087440687 0),,2015-04-21T00:00:00+00:00,False,True,False,False,False,False,-75.40999856954225,3.7515940874406866
1149,La Meseta,POINT Z (-75.4105156917777 3.775774117812782 0),,2015-04-21T00:00:00+00:00,False,True,False,False,False,False,-75.4105156917777,3.7757741178127824
1150,Los Mangos,POINT Z (-75.4174108863085 3.773525016159569 0),,2015-04-21T00:00:00+00:00,False,True,False,False,False,False,-75.4174108863085,3.773525016159569
1151,La Esperanza,POINT Z (-75.41768880637065 3.765034588621611 0),,2015-04-21T00:00:00+00:00,False,True,False,False,False,False,-75.41768880637065,3.7650345886216106
1152,El Triunfo,POINT Z (-75.41744512111275 3.735214809450515 0),,2015-04-21T00:00:00+00:00,False,True,False,False,False,False,-75.41744512111275,3.735214809450515
1153,Las Brisas,POINT Z (-75.40038934386295 3.710728167903466 0),,2015-04-21T00:00:00+00:00,False,True,False,False,False,False,-75.40038934386295,3.7107281679034663
1154,El Cerrito,POINT Z (-75.40235088002673 3.725091120583587 0),,2015-04-21T00:00:00+00:00,False,True,False,False,False,False,-75.40235088002673,3.7250911205835875
1155,La Imprenta,POINT Z (-75.40387771245193 3.744308818044493 0),,2015-04-21T00:00:00+00:00,False,True,False,False,False,False,-75.40387771245193,3.7443088180444932
1156,Chicuambe,POINT Z (-75.40377521541917 3.77851104722159 0),,2015-04-21T00:00:00+00:00,False,True,False,False,False,False,-75.40377521541917,3.7785110472215897
1157,El Salado,POINT Z (-75.4093214195981 3.777331480175743 0),,2015-04-21T00:00:00+00:00,False,True,False,False,False,False,-75.4093214195981,3.777331480175743
1158,Piedras Negras,POINT Z (-75.39202814058255 3.693882727565693 0),,2015-04-21T00:00:00+00:00,False,True,False,False,False,False,-75.39202814058255,3.693882727565693
1159,La Pachuca,POINT Z (-75.39177179173537 3.706157092880856 0),,2015-04-21T00:00:00+00:00,False,True,False,False,False,False,-75.39177179173537,3.7061570928808556
1160,El Churimal,POINT Z (-75.39249316014802 3.717276456187353 0),,2015-04-21T00:00:00+00:00,False,True,False,False,False,False,-75.39249316014802,3.7172764561873533
1161,Los Mosquitos,POINT Z (-75.39624437098765 3.736280668274069 0),,2015-04-21T00:00:00+00:00,False,True,False,False,False,False,-75.39624437098765,3.736280668274069
1162,La Esperanza,POINT Z (-75.3878301872835 3.714683108540375 0),,2015-04-21T00:00:00+00:00,False,True,False,False,False,False,-75.3878301872835,3.714683108540375
1163,Agua Fría,POINT Z (-75.38847501400944 3.711274088659977 0),,2015-04-21T00:00:00+00:00,True,True,False,False,False,False,-75.38847501400944,3.7112740886599767
1164,Los Mirtos,POINT Z (-75.38682183687874 3.710590508106979 0),,2015-04-21T00:00:00+00:00,False,True,False,False,False,False,-75.38682183687874,3.7105905081069794
1165,Los Totumos,POINT Z (-75.38763030107181 3.691103599749036 0),,2015-04-21T00:00:00+00:00,False,True,False,False,False,False,-75.38763030107181,3.691103599749036
1166,El Mirador,POINT Z (-75.38653989552699 3.691105212135394 0),,2015-04-21T00:00:00+00:00,False,True,False,False,False,False,-75.386539895527,3.6911052121353944
1167,Marruecos,POINT Z (-75.37631439584425 3.710849493221758 0),,2015-04-21T00:00:00+00:00,False,True,False,False,False,False,-75.37631439584425,3.7108494932217577
1168,Acapulco,POINT Z (-75.38133494950536 3.731921208292995 0),,2015-04-21T00:00:00+00:00,False,True,False,False,False,False,-75.38133494950536,3.731921208292995
1169,Las Brisas,POINT Z (-75.37509057525676 3.740096584137053 0),,2015-04-21T00:00:00+00:00,False,True,False,False,False,False,-75.37509057525676,3.7400965841370533
1170,Hacienda Jamaica,POINT Z (-75.37933054062673 3.747039204260484 0),Hacienda,2015-04-21T00:00:00+00:00,False,True,False,False,False,False,-75.37933054062673,3.747039204260484
1171,Diamante,POINT Z (-75.3690141638879 3.780106297216208 0),,2015-04-21T00:00:00+00:00,False,True,False,False,False,False,-75.3690141638879,3.7801062972162085
1172,Las Delicias,POINT Z (-75.3694967931479 3.778722427389602 0),,2015-04-21T00:00:00+00:00,False,True,False,False,False,False,-75.3694967931479,3.778722427389602
1173,El Bosque,POINT Z (-75.3687950027164 3.780881189302487 0),,2015-04-21T00:00:00+00:00,False,True,False,False,False,False,-75.3687950027164,3.7808811893024865
1174,El Rocio,POINT Z (-75.36787130787792 3.774509008500712 0),,2015-04-21T00:00:00+00:00,False,True,False,False,False,False,-75.36787130787792,3.7745090085007122
1175,El Recuerdo,POINT Z (-75.36178951383128 3.773839054990025 0),,2015-04-21T00:00:00+00:00,False,True,False,False,False,False,-75.36178951383128,3.7738390549900247
1176,La Meseta,POINT Z (-75.36582133193014 3.773748559913187 0),,2015-04-21T00:00:00+00:00,False,True,False,False,False,False,-75.36582133193014,3.773748559913187
1177,Capellanía,POINT Z (-75.36757798536406 3.732262464951413 0),,2015-04-21T00:00:00+00:00,True,True,False,False,False,False,-75.36757798536406,3.7322624649514133
1178,Pipini,POINT Z (-75.36690474298959 3.693380254677983 0),,2015-04-21T00:00:00+00:00,True,True,False,False,False,False,-75.36690474298959,3.693380254677983
1179,Hacienda El Diamante,POINT Z (-75.36766990956509 3.696964272201533 0),Hacienda,2015-04-21T00:00:00+00:00,False,True,False,False,False,False,-75.3676699095651,3.6969642722015332
1180,El Jardin,POINT Z (-75.36241224290211 3.777604321903556 0),,2015-04-21T00:00:00+00:00,False,True,False,False,False,False,-75.36241224290211,3.7776043219035564
1181,Las Placitas,POINT Z (-75.35657899471457 3.780965733956512 0),,2015-04-21T00:00:00+00:00,False,True,False,False,False,False,-75.35657899471457,3.780965733956512
1182,La Esperanza,POINT Z (-75.35783439924084 3.780720440492095 0),,2015-04-21T00:00:00+00:00,False,True,False,False,False,False,-75.35783439924084,3.780720440492095
1183,Los Laureles,POINT Z (-75.36293572264294 3.774029476552712 0),,2015-04-21T00:00:00+00:00,False,True,False,False,False,False,-75.36293572264294,3.774029476552712
1184,El Paraiso,POINT Z (-75.36044307514915 3.772083442783674 0),,2015-04-21T00:00:00+00:00,False,True,False,False,False,False,-75.36044307514915,3.7720834427836736
1185,La Macarena,POINT Z (-75.35675461291871 3.773013705691478 0),,2015-04-21T00:00:00+00:00,False,True,False,False,False,False,-75.3567546129187,3.773013705691478
1186,El Limonar,POINT Z (-75.359066904778 3.771474101824101 0),,2015-04-21T00:00:00+00:00,False,True,False,False,False,False,-75.359066904778,3.7714741018241007
1187,Buena Vista,POINT Z (-75.35590751669938 3.77124589779363 0),,2015-04-21T00:00:00+00:00,False,True,False,False,False,False,-75.35590751669938,3.77124589779363
1188,La Yaguara,POINT Z (-75.35735545809925 3.771210825045868 0),,2015-04-21T00:00:00+00:00,False,True,False,False,False,False,-75.35735545809925,3.7712108250458676
1189,Los Mangos,POINT Z (-75.35668552459579 3.770964430146706 0),,2015-04-21T00:00:00+00:00,False,True,False,False,False,False,-75.35668552459579,3.7709644301467056
1190,Yaguara,POINT Z (-75.35802187696606 3.770844428910157 0),,2015-04-21T00:00:00+00:00,False,True,False,False,False,False,-75.35802187696606,3.7708444289101575
1191,El Tesoro,POINT Z (-75.36004417738764 3.767757926785825 0),,2015-04-21T00:00:00+00:00,False,True,False,False,False,False,-75.36004417738764,3.767757926785825
1192,La Llaneta,POINT Z (-75.35768705269494 3.762833680428412 0),,2015-04-21T00:00:00+00:00,False,True,False,False,False,False,-75.35768705269494,3.762833680428412
1193,El Campamento,POINT Z (-75.35733531863302 3.763350576814255 0),,2015-04-21T00:00:00+00:00,False,True,False,False,False,False,-75.35733531863302,3.7633505768142546
1194,Libano,POINT Z (-75.36047440165156 3.7606607827413 0),,2015-04-21T00:00:00+00:00,False,True,False,False,False,False,-75.36047440165156,3.7606607827413
1195,El Castillo,POINT Z (-75.3581081934073 3.759557745928951 0),,2015-04-21T00:00:00+00:00,False,True,False,False,False,False,-75.3581081934073,3.759557745928951
1196,Los Planes,POINT Z (-75.35911928455562 3.757977613715024 0),,2015-04-21T00:00:00+00:00,False,True,False,False,False,False,-75.35911928455562,3.757977613715024
1197,La Chaparralosa,POINT Z (-75.36118691859396 3.755776272321047 0),,2015-04-21T00:00:00+00:00,False,True,False,False,False,False,-75.36118691859396,3.755776272321047
1198,Hacienda San Jose,POINT Z (-75.3640030221928 3.712839012699256 0),Hacienda,2015-04-21T00:00:00+00:00,False,True,False,False,False,False,-75.3640030221928,3.712839012699256
1199,Buenavista,POINT Z (-75.34924988712203 3.778352224533387 0),,2015-04-21T00:00:00+00:00,False,True,False,False,False,False,-75.34924988712203,3.7783522245333874
1200,La Laguna,POINT Z (-75.35005476316705 3.776344537572503 0),Laguna,2015-04-21T00:00:00+00:00,False,True,False,False,False,False,-75.35005476316705,3.7763445375725033
1201,Buenos Aires,POINT Z (-75.35563715445157 3.777192028700286 0),,2015-04-21T00:00:00+00:00,False,True,False,False,False,False,-75.35563715445157,3.777192028700286
1202,El Palacio,POINT Z (-75.34897403607515 3.77045939178244 0),,2015-04-21T00:00:00+00:00,False,True,False,False,False,False,-75.34897403607515,3.7704593917824405
1203,La Esperanza,POINT Z (-75.34951303314247 3.777510877446734 0),,2015-04-21T00:00:00+00:00,False,True,False,False,False,False,-75.34951303314247,3.7775108774467343
1204,La Granjita,POINT Z (-75.35163900341573 3.774984867856702 0),,2015-04-21T00:00:00+00:00,False,True,False,False,False,False,-75.35163900341573,3.774984867856702
1205,Alto de La Cruz,POINT Z (-75.34874250908237 3.762728782071645 0),,2015-04-21T00:00:00+00:00,False,True,False,False,False,False,-75.34874250908237,3.762728782071645
1206,El Saman,POINT Z (-75.34825850057859 3.732661388660058 0),,2015-04-21T00:00:00+00:00,False,True,False,False,False,False,-75.3482585005786,3.732661388660058
1207,La Primavera,POINT Z (-75.3416447340596 3.780340371059291 0),,2015-04-21T00:00:00+00:00,False,True,False,False,False,False,-75.3416447340596,3.780340371059291
1208,Buenos Aires,POINT Z (-75.34465484521385 3.779790078822912 0),,2015-04-21T00:00:00+00:00,False,True,False,False,False,False,-75.34465484521385,3.7797900788229124
1209,Las Delicias,POINT Z (-75.34217092417326 3.748028869994281 0),,2015-04-21T00:00:00+00:00,False,True,False,False,False,False,-75.34217092417326,3.7480288699942808
1210,La Meseta,POINT Z (-75.3438563627528 3.745562548494007 0),,2015-04-21T00:00:00+00:00,False,True,False,False,False,False,-75.3438563627528,3.745562548494007
1211,El Porvenir,POINT Z (-75.33476968728725 3.728062911323155 0),,2015-04-21T00:00:00+00:00,False,True,False,False,False,False,-75.33476968728725,3.7280629113231547
1212,Hacienda Estambul,POINT Z (-75.33073933456589 3.713255827283661 0),Hacienda,2015-04-21T00:00:00+00:00,False,True,False,False,False,False,-75.33073933456589,3.713255827283661
1213,Palmiechal,POINT Z (-75.3307632376754 3.709375533020168 0),,2015-04-21T00:00:00+00:00,False,True,False,False,False,False,-75.3307632376754,3.7093755330201676
1214,Hacienda La Victoria,POINT Z (-75.32553947306386 3.712614041942724 0),Hacienda,2015-04-21T00:00:00+00:00,False,True,False,False,False,False,-75.32553947306386,3.712614041942724
1215,Chontaduro,POINT Z (-75.32229413387563 3.723329956421463 0),,2015-04-21T00:00:00+00:00,False,True,False,False,False,False,-75.32229413387563,3.723329956421463
1216,Peñas Lisas,POINT Z (-75.31523451981947 3.778799899171526 0),,2015-04-21T00:00:00+00:00,False,True,False,False,False,False,-75.31523451981947,3.778799899171526
1217,Tierras Blancas,POINT Z (-75.31110960257921 3.759566663050145 0),,2015-04-21T00:00:00+00:00,False,True,False,False,False,False,-75.31110960257921,3.759566663050145
1218,El Cural,POINT Z (-75.29320025908433 3.719383304692891 0),,2015-04-21T00:00:00+00:00,False,True,False,False,False,False,-75.29320025908433,3.7193833046928915
1219,La Calera,POINT Z (-75.30303871819549 3.772502469027573 0),,2015-04-21T00:00:00+00:00,False,True,False,False,False,False,-75.3030387181955,3.7725024690275735
1220,Los Patios,POINT Z (-75.35251897653431 3.773169813205115 0),,2015-04-21T00:00:00+00:00,False,True,False,False,False,False,-75.35251897653431,3.7731698132051146
1221,San Isidro,POINT Z (-75.4260717955342 3.692966223131096 0),,2015-04-21T00:00:00+00:00,False,True,False,False,False,False,-75.4260717955342,3.692966223131096
1222,La Ceiba,POINT Z (-75.29566658373813 3.715368080228556 0),,2015-04-21T00:00:00+00:00,False,True,False,False,False,False,-75.29566658373813,3.7153680802285556
1223,Cajones,POINT Z (-75.42313387306784 3.77749648547028 0),,2015-04-21T00:00:00+00:00,False,True,False,False,False,False,-75.42313387306784,3.77749648547028
1224,Hacienda Estangul,POINT Z (-75.33675881431162 3.70817279437389 0),Hacienda,2015-04-21T00:00:00+00:00,False,True,False,False,False,False,-75.33675881431162,3.7081727943738905
1225,Chichambe,POINT Z (-75.40090657673443 3.780383939784078 0),,2015-04-21T00:00:00+00:00,False,True,False,False,False,False,-75.40090657673443,3.7803839397840777
1226,San Roque,POINT Z (-75.295639937015 3.512072440618593 0),,2015-10-31T00:00:00+00:00,False,True,False,False,False,False,-75.295639937015,3.512072440618593
1227,Manizales,POINT Z (-75.3161367866183 3.512808645225473 0),,2015-10-31T00:00:00+00:00,False,True,False,False,False,False,-75.3161367866183,3.5128086452254728
1228,Las Isolas,POINT Z (-75.30056716301819 3.516586803296197 0),,2015-10-31T00:00:00+00:00,False,True,False,False,False,False,-75.30056716301819,3.5165868032961973
1229,El Hoyo,POINT Z (-75.31346700211293 3.518164161699692 0),,2015-10-31T00:00:00+00:00,False,True,False,False,False,False,-75.31346700211293,3.5181641616996924
1230,San Roque,POINT Z (-75.29662759684609 3.518194070989766 0),,2015-10-31T00:00:00+00:00,False,True,False,False,False,False,-75.2966275968461,3.518194070989766
1231,Lasisola,POINT Z (-75.29985597431462 3.51891788440171 0),,2015-10-31T00:00:00+00:00,False,True,False,False,False,False,-75.29985597431462,3.5189178844017097
1232,Serrezuela,POINT Z (-75.33031654984146 3.520069258388806 0),,2015-10-31T00:00:00+00:00,False,True,False,False,False,False,-75.33031654984146,3.520069258388806
1233,La Laguna,POINT Z (-75.3030626206493 3.52059472073892 0),Laguna,2015-10-31T00:00:00+00:00,False,True,False,False,False,False,-75.3030626206493,3.52059472073892
1234,Torrijo,POINT Z (-75.29928257346461 3.520622534643508 0),,2015-10-31T00:00:00+00:00,False,True,False,False,False,False,-75.29928257346461,3.5206225346435076
1235,Hacienda El Salado,POINT Z (-75.36169025994528 3.521792779017273 0),Hacienda,2015-10-31T00:00:00+00:00,False,True,False,False,False,False,-75.36169025994528,3.521792779017273
1236,La Guaira,POINT Z (-75.40724129685273 3.521880286582499 0),,2015-10-31T00:00:00+00:00,False,True,False,False,False,False,-75.40724129685273,3.5218802865824994
1237,El Verde,POINT Z (-75.31997960434371 3.523930832301714 0),,2015-10-31T00:00:00+00:00,False,True,False,False,False,False,-75.31997960434371,3.523930832301714
1238,El Salado,POINT Z (-75.36001420027951 3.526188585654181 0),,2015-10-31T00:00:00+00:00,False,True,False,False,False,False,-75.36001420027951,3.526188585654181
1239,San Vicente,POINT Z (-75.29474957272394 3.527289285615614 0),,2015-10-31T00:00:00+00:00,False,True,False,False,False,False,-75.29474957272394,3.5272892856156144
1240,Altamira,POINT Z (-75.30405786416955 3.528151863123285 0),,2015-10-31T00:00:00+00:00,False,True,False,False,False,False,-75.30405786416955,3.528151863123285
1241,Horizonte,POINT Z (-75.35548787111816 3.529113813560919 0),,2015-10-31T00:00:00+00:00,True,True,False,False,False,False,-75.35548787111816,3.5291138135609192
1242,El Diamante,POINT Z (-75.30946352723323 3.529816083309536 0),,2015-10-31T00:00:00+00:00,False,True,False,False,False,False,-75.30946352723323,3.5298160833095356
1243,La Ilusión,POINT Z (-75.30233533945039 3.531162923053643 0),,2015-10-31T00:00:00+00:00,False,True,False,False,False,False,-75.3023353394504,3.5311629230536434
1244,Potrerito,POINT Z (-75.41969967706299 3.532143473838859 0),,2015-10-31T00:00:00+00:00,False,True,False,False,False,False,-75.419699677063,3.532143473838859
1245,El Arbolito,POINT Z (-75.30193665969649 3.532186905012316 0),,2015-10-31T00:00:00+00:00,False,True,False,False,False,False,-75.3019366596965,3.5321869050123156
1246,Mina de Oro Potrerito,POINT Z (-75.41981300656883 3.532396044414344 0),,2015-10-31T00:00:00+00:00,False,True,False,False,False,False,-75.41981300656883,3.532396044414344
1247,Palmeras,POINT Z (-75.40550893881645 3.533965882907456 0),,2015-10-31T00:00:00+00:00,False,True,False,False,False,False,-75.40550893881645,3.533965882907456
1248,Las Palmas,POINT Z (-75.38375231601955 3.534016787072629 0),,2015-10-31T00:00:00+00:00,False,True,False,False,False,False,-75.38375231601955,3.5340167870726287
1249,Buenavista,POINT Z (-75.31310891170844 3.534776535726172 0),,2015-10-31T00:00:00+00:00,False,True,False,False,False,False,-75.31310891170844,3.534776535726172
1250,Londres,POINT Z (-75.30421955332821 3.535385389712919 0),,2015-10-31T00:00:00+00:00,True,True,False,False,False,False,-75.30421955332821,3.5353853897129195
1251,Las Tortolas,POINT Z (-75.34763604806166 3.536107626459214 0),,2015-10-31T00:00:00+00:00,False,True,False,False,False,False,-75.34763604806166,3.536107626459214
1252,Las Rosas,POINT Z (-75.31141156763326 3.536673400029671 0),,2015-10-31T00:00:00+00:00,False,True,False,False,False,False,-75.31141156763326,3.536673400029671
1253,Alta Gracia,POINT Z (-75.29438028193896 3.537177288329995 0),,2015-10-31T00:00:00+00:00,False,True,False,False,False,False,-75.29438028193896,3.537177288329995
1254,El Paraíso,POINT Z (-75.30327418177448 3.538755583803345 0),,2015-10-31T00:00:00+00:00,False,True,False,False,False,False,-75.30327418177448,3.5387555838033453
1255,La Rivera,POINT Z (-75.32001950897177 3.538947581806836 0),,2015-10-31T00:00:00+00:00,False,True,False,False,False,False,-75.32001950897177,3.538947581806836
1256,La Alegría,POINT Z (-75.30546790792106 3.539499294954545 0),,2015-10-31T00:00:00+00:00,False,True,False,False,False,False,-75.30546790792106,3.539499294954545
1257,El Arrayan,POINT Z (-75.29308407097326 3.540006558814747 0),,2015-10-31T00:00:00+00:00,False,True,False,False,False,False,-75.29308407097326,3.540006558814747
1258,Casa Quemada,POINT Z (-75.31441592005221 3.540008975477755 0),,2015-10-31T00:00:00+00:00,False,True,False,False,False,False,-75.31441592005221,3.5400089754777553
1259,Las Guacamayas,POINT Z (-75.41667584994043 3.541769495422468 0),,2015-10-31T00:00:00+00:00,False,True,False,False,False,False,-75.41667584994043,3.541769495422468
1260,Los Naranjos,POINT Z (-75.31034727276904 3.541999793511249 0),,2015-10-31T00:00:00+00:00,False,True,False,False,False,False,-75.31034727276904,3.541999793511249
1261,Punteralan,POINT Z (-75.40186844540825 3.542017867787926 0),,2015-10-31T00:00:00+00:00,False,True,False,False,False,False,-75.40186844540825,3.542017867787926
1262,La Pradera,POINT Z (-75.30892490123288 3.542179966648119 0),,2015-10-31T00:00:00+00:00,False,True,False,False,False,False,-75.30892490123288,3.542179966648119
1263,Las Brisas,POINT Z (-75.31505228629004 3.543714465730193 0),,2015-10-31T00:00:00+00:00,False,True,False,False,False,False,-75.31505228629004,3.543714465730193
1264,Potreritos,POINT Z (-75.31090134671548 3.543808061891088 0),,2015-10-31T00:00:00+00:00,False,True,False,False,False,False,-75.31090134671548,3.543808061891088
1265,La Chiquita,POINT Z (-75.39605717726961 3.54388018782371 0),,2015-10-31T00:00:00+00:00,False,True,False,False,False,False,-75.39605717726961,3.5438801878237096
1266,El Davis,POINT Z (-75.31173533754108 3.544288867925926 0),,2015-10-31T00:00:00+00:00,False,True,False,False,False,False,-75.31173533754108,3.544288867925926
1267,Brasilia,POINT Z (-75.40274082139194 3.562152249205529 0),,2015-10-31T00:00:00+00:00,True,True,False,False,False,False,-75.40274082139194,3.562152249205529
1268,La Manuela,POINT Z (-75.30788526377187 3.563378509898029 0),,2015-10-31T00:00:00+00:00,False,True,False,False,False,False,-75.30788526377187,3.5633785098980293
1269,La Rosalia,POINT Z (-75.35481847120795 3.564147859214466 0),,2015-10-31T00:00:00+00:00,False,True,False,False,False,False,-75.35481847120795,3.5641478592144664
1270,El Pital,POINT Z (-75.31309111662576 3.564891381519755 0),,2015-10-31T00:00:00+00:00,False,True,False,False,False,False,-75.31309111662576,3.564891381519755
1271,El Reposo,POINT Z (-75.401396840397 3.564928276158478 0),,2015-10-31T00:00:00+00:00,False,True,False,False,False,False,-75.401396840397,3.564928276158478
1272,La Palmita,POINT Z (-75.40119119560121 3.565471198249412 0),,2015-10-31T00:00:00+00:00,False,True,False,False,False,False,-75.40119119560121,3.5654711982494125
1273,Betania,POINT Z (-75.29527185654658 3.566063823252951 0),,2015-10-31T00:00:00+00:00,False,True,False,False,False,False,-75.29527185654658,3.5660638232529513
1274,Florencia,POINT Z (-75.30788347544153 3.566063883243308 0),,2015-10-31T00:00:00+00:00,False,True,False,False,False,False,-75.30788347544153,3.5660638832433085
1275,El Retiro,POINT Z (-75.30214333278106 3.566915301016879 0),,2015-10-31T00:00:00+00:00,False,True,False,False,False,False,-75.30214333278106,3.566915301016879
1276,Los Hobos,POINT Z (-75.33329210233957 3.568252830680845 0),,2015-10-31T00:00:00+00:00,True,True,False,False,False,False,-75.33329210233957,3.5682528306808448
1277,Escuela Camilo Torres,POINT Z (-75.38177262356106 3.590589095531643 0),Escuela,2015-10-31T00:00:00+00:00,False,True,False,False,False,False,-75.38177262356106,3.590589095531643
1278,Palacio Municipal,POINT Z (-75.38327644256444 3.59095077437484 0),,2015-10-31T00:00:00+00:00,False,True,False,False,False,False,-75.38327644256444,3.59095077437484
1279,Los Mangos,POINT Z (-75.35435185059386 3.591416469772008 0),,2015-10-31T00:00:00+00:00,False,True,False,False,False,False,-75.35435185059386,3.5914164697720077
1280,El Retiro,POINT Z (-75.2932649898637 3.591563315588804 0),,2015-10-31T00:00:00+00:00,False,True,False,False,False,False,-75.2932649898637,3.591563315588804
1281,Cementerio,POINT Z (-75.37718970004654 3.59157655341441 0),Cementerio,2015-10-31T00:00:00+00:00,False,True,False,False,False,False,-75.37718970004654,3.59157655341441
1282,El Danubio,POINT Z (-75.31231081086115 3.591723208266254 0),,2015-10-31T00:00:00+00:00,False,True,False,False,False,False,-75.31231081086115,3.5917232082662536
1283,El Rayo,POINT Z (-75.30181293650837 3.592648328563035 0),,2015-10-31T00:00:00+00:00,True,True,False,False,False,False,-75.30181293650837,3.5926483285630346
1284,Colegio San Juan Bosco,POINT Z (-75.38411651432463 3.592755537451185 0),Colegio,2015-10-31T00:00:00+00:00,False,True,False,False,False,False,-75.38411651432463,3.5927555374511853
1285,Instituto Nacional Martín Pomala,POINT Z (-75.37936786772887 3.593146073667609 0),Instituto,2015-10-31T00:00:00+00:00,False,True,False,False,False,False,-75.37936786772887,3.593146073667609
1286,Guamalito,POINT Z (-75.40490883114137 3.59340191703033 0),,2015-10-31T00:00:00+00:00,False,True,False,False,False,False,-75.40490883114137,3.5934019170303304
1287,Hospital Nuestra Señora de Lourdes,POINT Z (-75.38228658741087 3.593787090669655 0),Hospital,2015-10-31T00:00:00+00:00,False,True,False,False,False,False,-75.38228658741087,3.5937870906696547
1288,San Antonio,POINT Z (-75.31472958365795 3.593912427747421 0),,2015-10-31T00:00:00+00:00,False,True,False,False,False,False,-75.31472958365795,3.593912427747421
1289,Las  Brisas,POINT Z (-75.42370600797115 3.595106597645646 0),,2015-10-31T00:00:00+00:00,False,True,False,False,False,False,-75.42370600797115,3.5951065976456458
1290,Las Varas,POINT Z (-75.41729318641008 3.545120844515774 0),,2015-10-31T00:00:00+00:00,False,True,False,False,False,False,-75.41729318641008,3.5451208445157736
1291,Los Ciruelos,POINT Z (-75.39818883611322 3.545515704430494 0),,2015-10-31T00:00:00+00:00,False,True,False,False,False,False,-75.39818883611322,3.5455157044304944
1292,La Espezanza,POINT Z (-75.31481093717026 3.546071885875425 0),,2015-10-31T00:00:00+00:00,False,True,False,False,False,False,-75.31481093717026,3.5460718858754245
1293,La Floresta,POINT Z (-75.32058049992087 3.546105367414916 0),,2015-10-31T00:00:00+00:00,False,True,False,False,False,False,-75.32058049992087,3.5461053674149157
1294,Las Tortolas,POINT Z (-75.3474543246725 3.54949905832874 0),,2015-10-31T00:00:00+00:00,False,True,False,False,False,False,-75.3474543246725,3.5494990583287396
1295,Califrio,POINT Z (-75.29567331657294 3.55062015488278 0),,2015-10-31T00:00:00+00:00,False,True,False,False,False,False,-75.29567331657294,3.5506201548827803
1296,Mirolindo,POINT Z (-75.34212287616052 3.552400749482063 0),,2015-10-31T00:00:00+00:00,False,True,False,False,False,False,-75.34212287616052,3.5524007494820626
1297,El Filo,POINT Z (-75.31718258580204 3.552423851658011 0),Filo,2015-10-31T00:00:00+00:00,False,True,False,False,False,False,-75.31718258580204,3.552423851658011
1298,Batatas,POINT Z (-75.40245078273662 3.552744935653721 0),,2015-10-31T00:00:00+00:00,False,True,False,False,False,False,-75.40245078273662,3.552744935653721
1299,Las Palmas,POINT Z (-75.36523324294104 3.553373295701515 0),,2015-10-31T00:00:00+00:00,False,True,False,False,False,False,-75.36523324294104,3.5533732957015145
1300,Palmar,POINT Z (-75.40728713376697 3.555228731151811 0),,2015-10-31T00:00:00+00:00,False,True,False,False,False,False,-75.40728713376697,3.5552287311518107
1301,Patio Bonito,POINT Z (-75.35092935322423 3.55537979109736 0),,2015-10-31T00:00:00+00:00,False,True,False,False,False,False,-75.35092935322423,3.55537979109736
1302,Primavera,POINT Z (-75.29546729123877 3.556277909079506 0),,2015-10-31T00:00:00+00:00,False,True,False,False,False,False,-75.29546729123877,3.5562779090795056
1303,Palma Rosa,POINT Z (-75.30974038747532 3.55635823206453 0),,2015-10-31T00:00:00+00:00,False,True,False,False,False,False,-75.30974038747532,3.55635823206453
1304,El Cruce de Batatas,POINT Z (-75.40606561532114 3.556375550391724 0),,2015-10-31T00:00:00+00:00,False,True,False,False,False,False,-75.40606561532114,3.556375550391724
1305,La Villita,POINT Z (-75.41291594882902 3.55713934985441 0),,2015-10-31T00:00:00+00:00,False,True,False,False,False,False,-75.41291594882902,3.55713934985441
1306,El Arrayan,POINT Z (-75.31724647350941 3.559157240940563 0),,2015-10-31T00:00:00+00:00,False,True,False,False,False,False,-75.31724647350941,3.5591572409405625
1307,La Florida,POINT Z (-75.35241018772625 3.55964604333066 0),,2015-10-31T00:00:00+00:00,False,True,False,False,False,False,-75.35241018772625,3.55964604333066
1308,Hacienda Horizontes,POINT Z (-75.4234323333781 3.560018136405304 0),Hacienda,2015-10-31T00:00:00+00:00,False,True,False,False,False,False,-75.4234323333781,3.560018136405304
1309,Palo Quemado,POINT Z (-75.40448732782107 3.560600600683134 0),,2015-10-31T00:00:00+00:00,False,True,False,False,False,False,-75.40448732782107,3.560600600683134
1310,Los Olivos,POINT Z (-75.314820123601 3.57836340640655 0),,2015-10-31T00:00:00+00:00,False,True,False,False,False,False,-75.314820123601,3.5783634064065497
1311,Buenos Aires,POINT Z (-75.30913750607218 3.579684724005609 0),,2015-10-31T00:00:00+00:00,False,True,False,False,False,False,-75.30913750607218,3.579684724005609
1312,El Jazmín,POINT Z (-75.29312906020506 3.579806096415017 0),,2015-10-31T00:00:00+00:00,False,True,False,False,False,False,-75.29312906020506,3.579806096415017
1313,El Tigre,POINT Z (-75.37695943077068 3.580035316404349 0),,2015-10-31T00:00:00+00:00,False,True,False,False,False,False,-75.37695943077068,3.580035316404349
1314,La Florida,POINT Z (-75.31248248076625 3.571673627273413 0),,2015-10-31T00:00:00+00:00,False,True,False,False,False,False,-75.31248248076625,3.571673627273413
1315,Anape,POINT Z (-75.39578591275409 3.572853238498792 0),,2015-10-31T00:00:00+00:00,False,True,False,False,False,False,-75.39578591275409,3.572853238498792
1316,Hacienda La Granja,POINT Z (-75.39829263773551 3.573798063034364 0),Hacienda,2015-10-31T00:00:00+00:00,False,True,False,False,False,False,-75.39829263773551,3.573798063034364
1317,La Aurora,POINT Z (-75.31049070097021 3.573821373230691 0),,2015-10-31T00:00:00+00:00,False,True,False,False,False,False,-75.3104907009702,3.5738213732306914
1318,Palmira,POINT Z (-75.30607591710789 3.57415630287582 0),,2015-10-31T00:00:00+00:00,False,True,False,False,False,False,-75.30607591710789,3.57415630287582
1319,Los Mangos,POINT Z (-75.41607338906654 3.574279429911944 0),,2015-10-31T00:00:00+00:00,False,True,False,False,False,False,-75.41607338906654,3.574279429911944
1320,El Prendedor,POINT Z (-75.32546178586414 3.574619065650298 0),,2015-10-31T00:00:00+00:00,False,True,False,False,False,False,-75.32546178586414,3.574619065650298
1321,Nuevo Horizonte,POINT Z (-75.41680175445347 3.575821248883444 0),,2015-10-31T00:00:00+00:00,False,True,False,False,False,False,-75.41680175445347,3.5758212488834444
1322,Los Ángeles,POINT Z (-75.31764243493974 3.575885492590957 0),,2015-10-31T00:00:00+00:00,True,True,False,False,False,False,-75.31764243493974,3.5758854925909573
1323,Guamalito,POINT Z (-75.31026375647053 3.576615976744758 0),,2015-10-31T00:00:00+00:00,False,True,False,False,False,False,-75.31026375647053,3.576615976744758
1324,Las Manguitas,POINT Z (-75.32116703442708 3.576661331956199 0),,2015-10-31T00:00:00+00:00,False,True,False,False,False,False,-75.32116703442708,3.5766613319561986
1325,La Fandanga,POINT Z (-75.30846045383103 3.576821258026867 0),,2015-10-31T00:00:00+00:00,False,True,False,False,False,False,-75.30846045383103,3.576821258026867
1326,La Ceiba,POINT Z (-75.39428601090404 3.580578049857866 0),,2015-10-31T00:00:00+00:00,False,True,False,False,False,False,-75.39428601090404,3.580578049857866
1327,Las Palomas,POINT Z (-75.37484243623084 3.580664998621385 0),Loma,2015-10-31T00:00:00+00:00,False,True,False,False,False,False,-75.37484243623084,3.580664998621385
1328,Campamento Minero El Dorado,POINT Z (-75.37931820228916 3.580877521260668 0),,2015-10-31T00:00:00+00:00,False,True,False,False,False,False,-75.37931820228916,3.580877521260668
1329,La Pradera,POINT Z (-75.31175605506232 3.581901680099547 0),,2015-10-31T00:00:00+00:00,False,True,False,False,False,False,-75.31175605506232,3.581901680099547
1330,El Placer,POINT Z (-75.30803356806081 3.582891739979821 0),,2015-10-31T00:00:00+00:00,False,True,False,False,False,False,-75.30803356806081,3.5828917399798206
1331,La Cabaña,POINT Z (-75.35379795960822 3.583483836373813 0),,2015-10-31T00:00:00+00:00,False,True,False,False,False,False,-75.35379795960822,3.5834838363738126
1332,La Pista,POINT Z (-75.38693518394986 3.584383335132778 0),,2015-10-31T00:00:00+00:00,False,True,False,False,False,False,-75.38693518394986,3.584383335132778
1333,Las Brisas,POINT Z (-75.31800577285655 3.584757755339772 0),,2015-10-31T00:00:00+00:00,False,True,False,False,False,False,-75.31800577285655,3.584757755339772
1334,Plazuelas,POINT Z (-75.42702187724531 3.585044887210183 0),,2015-10-31T00:00:00+00:00,False,True,False,False,False,False,-75.42702187724531,3.5850448872101826
1335,La Albania,POINT Z (-75.31457412890386 3.585393703111246 0),,2015-10-31T00:00:00+00:00,False,True,False,False,False,False,-75.31457412890386,3.5853937031112464
1336,La Floresta,POINT Z (-75.30681474414985 3.585697717884552 0),,2015-10-31T00:00:00+00:00,False,True,False,False,False,False,-75.30681474414985,3.585697717884552
1337,Balsillas,POINT Z (-75.31435183208571 3.586011133658946 0),,2015-10-31T00:00:00+00:00,False,True,False,False,False,False,-75.3143518320857,3.586011133658946
1338,Puesto de Monta,POINT Z (-75.38159654368305 3.586849058529803 0),Puesto de monta,2015-10-31T00:00:00+00:00,False,True,False,False,False,False,-75.38159654368305,3.586849058529803
1339,Tetuaco,POINT Z (-75.40427956035795 3.586868436288627 0),,2015-10-31T00:00:00+00:00,True,True,False,False,False,False,-75.40427956035795,3.586868436288627
1340,Casa Juvenil,POINT Z (-75.3826030564654 3.588192978324471 0),,2015-10-31T00:00:00+00:00,False,True,False,False,False,False,-75.3826030564654,3.5881929783244715
1341,Iglesia Nuestra Señora de Lourdes,POINT Z (-75.38258877770208 3.588507542921611 0),Iglesia,2015-10-31T00:00:00+00:00,False,True,False,False,False,False,-75.38258877770208,3.588507542921611
1342,Puesto de Salud,POINT Z (-75.31403403013994 3.58859573262303 0),Puesto de salud,2015-10-31T00:00:00+00:00,False,True,False,False,False,False,-75.31403403013994,3.58859573262303
1343,Escuela Nuestra Señora de Lourdes,POINT Z (-75.38255784492016 3.588814018041706 0),Escuela,2015-10-31T00:00:00+00:00,False,True,False,False,False,False,-75.38255784492016,3.5888140180417056
1344,Zanjanegra,POINT Z (-75.39336454962555 3.589597422860115 0),Zanja,2015-10-31T00:00:00+00:00,False,True,False,False,False,False,-75.39336454962555,3.5895974228601153
1345,Puesto de Policia,POINT Z (-75.38302421983047 3.590003748158382 0),,2015-10-31T00:00:00+00:00,False,True,False,False,False,False,-75.38302421983047,3.5900037481583817
1346,Carcel,POINT Z (-75.38344776374377 3.590037060399041 0),Carcel,2015-10-31T00:00:00+00:00,False,True,False,False,False,False,-75.38344776374377,3.5900370603990406
1347,Caja Agraria,POINT Z (-75.38243887128166 3.590189345105494 0),,2015-10-31T00:00:00+00:00,False,True,False,False,False,False,-75.38243887128166,3.590189345105494
1348,Matadero,POINT Z (-75.383619085814 3.59535753446749 0),,2015-10-31T00:00:00+00:00,False,True,False,False,False,False,-75.383619085814,3.59535753446749
1349,Chiparco,POINT Z (-75.33562458617747 3.596751115965032 0),,2015-10-31T00:00:00+00:00,False,True,False,False,False,False,-75.33562458617747,3.596751115965032
1350,Berlín,POINT Z (-75.30527939504925 3.596883076566214 0),,2015-10-31T00:00:00+00:00,False,True,False,False,False,False,-75.30527939504925,3.5968830765662143
1351,La Gran Via,POINT Z (-75.30211818728982 3.598507680557248 0),,2015-10-31T00:00:00+00:00,False,True,False,False,False,False,-75.30211818728982,3.598507680557248
1352,La Esmeralda,POINT Z (-75.3092948291504 3.599185335247497 0),,2015-10-31T00:00:00+00:00,False,True,False,False,False,False,-75.3092948291504,3.599185335247497
1353,El Mirador,POINT Z (-75.34463552356978 3.599534375503644 0),,2015-10-31T00:00:00+00:00,False,True,False,False,False,False,-75.34463552356978,3.599534375503644
1354,La Jazmina,POINT Z (-75.3011803821981 3.600091632669529 0),,2015-10-31T00:00:00+00:00,False,True,False,False,False,False,-75.3011803821981,3.600091632669529
1355,Hacienda San Rafael,POINT Z (-75.37277289671079 3.600360940789105 0),Hacienda,2015-10-31T00:00:00+00:00,False,True,False,False,False,False,-75.37277289671079,3.6003609407891046
1356,Plazuelas,POINT Z (-75.40674381107458 3.585414983826427 0),,2015-10-31T00:00:00+00:00,False,True,False,False,False,False,-75.40674381107458,3.585414983826427
1357,Lindanay,POINT Z (-75.42393175373428 3.600194614878097 0),,2015-10-31T00:00:00+00:00,True,True,False,False,False,False,-75.42393175373428,3.6001946148780966
1358,Los Mangos,POINT Z (-75.41342441962048 3.580131578600551 0),,2015-10-31T00:00:00+00:00,False,True,False,False,False,False,-75.41342441962048,3.580131578600551
1359,Palo Quemado,POINT Z (-75.40836658255823 3.569427379121091 0),,2015-10-31T00:00:00+00:00,False,True,False,False,False,False,-75.40836658255823,3.569427379121091
