{"version": 0.6, "generator": "Overpass API 0.7.56.9 76e5016d", "osm3s": {"timestamp_osm_base": "2021-08-27T15:41:53Z", "copyright": "The data included in this document is from www.openstreetmap.org. The data is made available under ODbL."}, "elements": [{"type": "node", "id": 360051202, "lat": 3.4659505, "lon": -75.5696998, "tags": {"is_in": "colombia; tolima", "name": "Las se\u00f1oritas", "place": "hamlet"}}, {"type": "node", "id": 703218985, "lat": 3.5097864, "lon": -75.4349689, "tags": {"comment": "convertido a OSM usando http://GaleNUx.com", "divipola": "73168", "fixme": "Revisar: este punto fue creado por importaci\u00f3n directa", "is_in": "Colombia; Tolima ; Chaparral", "name": "La Manga", "note": "GEOPUNTO, PUNTO DE INTERES, 65e24ce01d1a259800da1ea333aa417b", "place": "locality", "source": "OCHA Colombia 2010"}}, {"type": "node", "id": 703219366, "lat": 3.5813838, "lon": -75.6260707, "tags": {"comment": "convertido a OSM usando http://GaleNUx.com", "divipola": "73168006", "name": "La Profunda", "place": "hamlet", "source": "OCHA Colombia 2010"}}, {"type": "node", "id": 703219374, "lat": 3.5946369, "lon": -75.6223764, "tags": {"comment": "convertido a OSM usando http://GaleNUx.com", "divipola": "73168", "fixme": "Revisar: este punto fue creado por importaci\u00f3n directa", "is_in": "Colombia; Tolima ; Chaparral", "name": "Las Juntas", "note": "GEOPUNTO, PUNTO DE INTERES, 4d230663357c9ba94fc0064cc8f83012", "place": "locality", "source": "OCHA Colombia 2010"}}, {"type": "node", "id": 703219375, "lat": 3.5981782, "lon": -75.6101942, "tags": {"comment": "convertido a OSM usando http://GaleNUx.com", "divipola": "73168", "fixme": "Revisar: este punto fue creado por importaci\u00f3n directa", "is_in": "Colombia; Tolima ; Chaparral", "name": "La Aldea", "note": "GEOPUNTO, PUNTO DE INTERES, b410e92a2877a4d90890f2369e24a0a1", "place": "locality", "source": "OCHA Colombia 2010"}}, {"type": "node", "id": 703219376, "lat": 3.6034194, "lon": -75.6058029, "tags": {"comment": "convertido a OSM usando http://GaleNUx.com", "divipola": "73168", "fixme": "Revisar: este punto fue creado por importaci\u00f3n directa", "is_in": "Colombia; Tolima ; Chaparral", "name": "La Argentina", "note": "GEOPUNTO, PUNTO DE INTERES, 35a94d6364ba21739323d71d38c62e4e", "place": "locality", "source": "OCHA Colombia 2010"}}, {"type": "node", "id": 703219384, "lat": 3.6320334, "lon": -75.5971621, "tags": {"comment": "convertido a OSM usando http://GaleNUx.com", "divipola": "73168", "fixme": "Revisar: este punto fue creado por importaci\u00f3n directa", "is_in": "Colombia; Tolima ; Chaparral", "name": "Calibio", "note": "GEOPUNTO, PUNTO DE INTERES, 23ad1b29aead22ab2201e9569d63411d", "place": "locality", "source": "OCHA Colombia 2010"}}, {"type": "node", "id": 703219385, "lat": 3.629342, "lon": -75.6144438, "tags": {"comment": "convertido a OSM usando http://GaleNUx.com", "divipola": "73168", "fixme": "Revisar: este punto fue creado por importaci\u00f3n directa", "is_in": "Colombia; Tolima ; Chaparral", "name": "Dos Aguas", "note": "GEOPUNTO, PUNTO DE INTERES, 290adecb75880944bb9b531d76e4857f", "place": "locality", "source": "OCHA Colombia 2010"}}, {"type": "node", "id": 703219386, "lat": 3.6258006, "lon": -75.6117524, "tags": {"comment": "convertido a OSM usando http://GaleNUx.com", "divipola": "73168", "fixme": "Revisar: este punto fue creado por importaci\u00f3n directa", "is_in": "Colombia; Tolima ; Chaparral", "name": "Berlin", "note": "GEOPUNTO, PUNTO DE INTERES, 936c7c8c51c3c6976e0596caa46a7200", "place": "locality", "source": "OCHA Colombia 2010"}}, {"type": "node", "id": 703219387, "lat": 3.6071024, "lon": -75.6203932, "tags": {"comment": "convertido a OSM usando http://GaleNUx.com", "divipola": "73168", "fixme": "Revisar: este punto fue creado por importaci\u00f3n directa", "is_in": "Colombia; Tolima ; Chaparral", "name": "El Triunfo", "note": "GEOPUNTO, PUNTO DE INTERES, 6495d3cd59c7fb036228979f7a6b3719", "place": "locality", "source": "OCHA Colombia 2010"}}, {"type": "node", "id": 703219388, "lat": 3.6429407, "lon": -75.60127, "tags": {"comment": "convertido a OSM usando http://GaleNUx.com", "divipola": "73168", "fixme": "Revisar: este punto fue creado por importaci\u00f3n directa", "is_in": "Colombia; Tolima ; Chaparral", "name": "La Glorieta", "note": "GEOPUNTO, PUNTO DE INTERES, fc51c1d297fd80a7a5ba8dae8d516dbd", "place": "locality", "source": "OCHA Colombia 2010"}}, {"type": "node", "id": 703219389, "lat": 3.6406742, "lon": -75.6154354, "tags": {"comment": "convertido a OSM usando http://GaleNUx.com", "divipola": "73168", "fixme": "Revisar: este punto fue creado por importaci\u00f3n directa", "is_in": "Colombia; Tolima ; Chaparral", "name": "La Tribuna", "note": "GEOPUNTO, PUNTO DE INTERES, 3f8f276992c25038d2bcace7facbe70b", "place": "locality", "source": "OCHA Colombia 2010"}}, {"type": "node", "id": 703219391, "lat": 3.6328833, "lon": -75.6072195, "tags": {"comment": "convertido a OSM usando http://GaleNUx.com", "divipola": "73168", "fixme": "Revisar: este punto fue creado por importaci\u00f3n directa", "is_in": "Colombia; Tolima ; Chaparral", "name": "El Tesoro", "note": "GEOPUNTO, PUNTO DE INTERES, 5f002196e85c86425e543dbd597c1cde", "place": "locality", "source": "OCHA Colombia 2010"}}, {"type": "node", "id": 703219394, "lat": 3.6340165, "lon": -75.6307339, "tags": {"comment": "convertido a OSM usando http://GaleNUx.com", "divipola": "73168", "fixme": "Revisar: este punto fue creado por importaci\u00f3n directa", "is_in": "Colombia; Tolima ; Chaparral", "name": "Calibio", "note": "ADMINISTRATIVO, VEREDA, 923b37a7004805159a175f7fe08cc82a", "place": "hamlet", "source": "OCHA Colombia 2010"}}, {"type": "node", "id": 703219397, "lat": 3.6626305, "lon": -75.6385249, "tags": {"comment": "convertido a OSM usando http://GaleNUx.com", "divipola": "73168", "fixme": "Revisar: este punto fue creado por importaci\u00f3n directa", "is_in": "Colombia; Tolima ; Chaparral", "name": "El Jardin", "note": "GEOPUNTO, PUNTO DE INTERES, c55c120014a4bcad952e52e09ca593fe", "place": "locality", "source": "OCHA Colombia 2010"}}, {"type": "node", "id": 703219398, "lat": 3.6539897, "lon": -75.6358335, "tags": {"comment": "convertido a OSM usando http://GaleNUx.com", "divipola": "73168", "fixme": "Revisar: este punto fue creado por importaci\u00f3n directa", "is_in": "Colombia; Tolima ; Chaparral", "name": "San Antonio", "note": "GEOPUNTO, PUNTO DE INTERES, c2498aebd8e08b3aa4211681147ebb23", "place": "locality", "source": "OCHA Colombia 2010"}}, {"type": "node", "id": 703219399, "lat": 3.657531, "lon": -75.6104775, "tags": {"comment": "convertido a OSM usando http://GaleNUx.com", "divipola": "73168", "fixme": "Revisar: este punto fue creado por importaci\u00f3n directa", "is_in": "Colombia; Tolima ; Chaparral", "name": "El Recuerdo", "note": "GEOPUNTO, PUNTO DE INTERES, 8d6c173bb5a07fd77df3e036c8752852", "place": "locality", "source": "OCHA Colombia 2010"}}, {"type": "node", "id": 703219400, "lat": 3.6537064, "lon": -75.6206765, "tags": {"comment": "convertido a OSM usando http://GaleNUx.com", "divipola": "73168", "fixme": "Revisar: este punto fue creado por importaci\u00f3n directa", "is_in": "Colombia; Tolima ; Chaparral", "name": "La Germania", "note": "GEOPUNTO, PUNTO DE INTERES, 36858e21545d7da340224cbe9c2daa0a", "place": "locality", "source": "OCHA Colombia 2010"}}, {"type": "node", "id": 703219401, "lat": 3.6840202, "lon": -75.612319, "tags": {"comment": "convertido a OSM usando http://GaleNUx.com", "divipola": "73168", "fixme": "Revisar: este punto fue creado por importaci\u00f3n directa", "is_in": "Colombia; Tolima ; Chaparral", "name": "Chicala", "note": "GEOPUNTO, PUNTO DE INTERES, 9eb8717cbf8cbdfe45bdad60cdf07ebd", "place": "locality", "source": "OCHA Colombia 2010"}}, {"type": "node", "id": 703219402, "lat": 3.6510149, "lon": -75.6222347, "tags": {"comment": "convertido a OSM usando http://GaleNUx.com", "divipola": "73168", "fixme": "Revisar: este punto fue creado por importaci\u00f3n directa", "is_in": "Colombia; Tolima ; Chaparral", "name": "La Victoria", "note": "GEOPUNTO, PUNTO DE INTERES, 100582fa9ed4a613c96f1df28bb9c3ab", "place": "locality", "source": "OCHA Colombia 2010"}}, {"type": "node", "id": 703219404, "lat": 3.6494567, "lon": -75.6087776, "tags": {"comment": "convertido a OSM usando http://GaleNUx.com", "divipola": "73168", "fixme": "Revisar: este punto fue creado por importaci\u00f3n directa", "is_in": "Colombia; Tolima ; Chaparral", "name": "Las Margaritas", "note": "GEOPUNTO, PUNTO DE INTERES, 5eaf2a9735d99e2ee4fbc9de499b0cdd", "place": "locality", "source": "OCHA Colombia 2010"}}, {"type": "node", "id": 703219406, "lat": 3.6728296, "lon": -75.5953206, "tags": {"comment": "convertido a OSM usando http://GaleNUx.com", "divipola": "73168", "fixme": "Revisar: este punto fue creado por importaci\u00f3n directa", "is_in": "Colombia; Tolima ; Chaparral", "name": "Granja El Limon", "note": "GEOPUNTO, PUNTO DE INTERES, 2057afd6548512a4bbe1474cee143d62", "place": "locality", "source": "OCHA Colombia 2010"}}, {"type": "node", "id": 703219407, "lat": 3.6619223, "lon": -75.5944706, "tags": {"comment": "convertido a OSM usando http://GaleNUx.com", "divipola": "73168", "fixme": "Revisar: este punto fue creado por importaci\u00f3n directa", "is_in": "Colombia; Tolima ; Chaparral", "name": "Hacienda Providencia", "note": "GEOPUNTO, PUNTO DE INTERES, 7a3811bb0e0589f3236f66ddd15b3312", "place": "locality", "source": "OCHA Colombia 2010"}}, {"type": "node", "id": 703219417, "lat": 3.8245793, "lon": -75.8495583, "tags": {"comment": "convertido a OSM usando http://GaleNUx.com", "divipola": "73168", "fixme": "Revisar: este punto fue creado por importaci\u00f3n directa", "is_in": "Colombia; Tolima ; Chaparral", "name": "Balcones", "note": "GEOPUNTO, PUNTO DE INTERES, ea8b82da45cff09626691b10f27f4bb0", "place": "isolated_dwelling", "source": "OCHA Colombia 2010"}}, {"type": "node", "id": 703219419, "lat": 3.7301992, "lon": -75.6780462, "tags": {"comment": "convertido a OSM usando http://GaleNUx.com", "divipola": "73168", "fixme": "Revisar: este punto fue creado por importaci\u00f3n directa", "is_in": "Colombia; Tolima ; Chaparral", "name": "La Aurora", "note": "GEOPUNTO, PUNTO DE INTERES, 359606558aca9a47974519e3817e7ca8", "place": "locality", "source": "OCHA Colombia 2010"}}, {"type": "node", "id": 703219420, "lat": 3.7328906, "lon": -75.6739382, "tags": {"comment": "convertido a OSM usando http://GaleNUx.com", "divipola": "73168", "fixme": "Revisar: este punto fue creado por importaci\u00f3n directa", "is_in": "Colombia; Tolima ; Chaparral", "name": "La Lindoza", "note": "GEOPUNTO, PUNTO DE INTERES, 3b9cc13eeaeed1371734190e5b8f4320", "place": "locality", "source": "OCHA Colombia 2010"}}, {"type": "node", "id": 703219429, "lat": 3.6926611, "lon": -75.712043, "tags": {"comment": "convertido a OSM usando http://GaleNUx.com", "divipola": "73168", "fixme": "Revisar: este punto fue creado por importaci\u00f3n directa", "is_in": "Colombia; Tolima ; Chaparral", "name": "El Pasaje", "note": "GEOPUNTO, PUNTO DE INTERES, 84de8c5e8cf456c04ae836892c095764", "place": "locality", "source": "OCHA Colombia 2010"}}, {"type": "node", "id": 703219438, "lat": 3.7476226, "lon": -75.6820125, "tags": {"comment": "convertido a OSM usando http://GaleNUx.com", "divipola": "73168", "fixme": "Revisar: este punto fue creado por importaci\u00f3n directa", "is_in": "Colombia; Tolima ; Chaparral", "name": "La Tarenta", "note": "GEOPUNTO, PUNTO DE INTERES, 220122aa6f63492c516c4241e85a847c", "place": "locality", "source": "OCHA Colombia 2010"}}, {"type": "node", "id": 703219439, "lat": 3.748007, "lon": -75.678397, "tags": {"comment": "convertido a OSM usando http://GaleNUx.com", "divipola": "73168", "fixme": "Revisar: este punto fue creado por importaci\u00f3n directa", "is_in": "Colombia; Tolima ; Chaparral", "name": "San Fernando", "note": "ADMINISTRATIVO, VEREDA, 9b22bc8b256ce0ad09adea95ffe110f2", "place": "hamlet", "source": "OCHA Colombia 2010"}}, {"type": "node", "id": 703219441, "lat": 3.7066408, "lon": -75.6643638, "tags": {"comment": "convertido a OSM usando http://GaleNUx.com", "divipola": "73168", "fixme": "Revisar: este punto fue creado por importaci\u00f3n directa", "is_in": "Colombia; Tolima ; Chaparral", "name": "Florestal Ambeima", "note": "ADMINISTRATIVO, VEREDA, 4116cd09458a2a1bff1944d996c0028b", "place": "hamlet", "source": "OCHA Colombia 2010"}}, {"type": "node", "id": 703219442, "lat": 3.6964857, "lon": -75.5861131, "tags": {"comment": "convertido a OSM usando http://GaleNUx.com", "divipola": "73168", "fixme": "Revisar: este punto fue creado por importaci\u00f3n directa", "is_in": "Colombia; Tolima ; Chaparral", "name": "Jazminia", "note": "GEOPUNTO, PUNTO DE INTERES, 56ce2942487c182f2a40c2778df5cd3f", "place": "locality", "source": "OCHA Colombia 2010"}}, {"type": "node", "id": 703219443, "lat": 3.6964857, "lon": -75.6135939, "tags": {"comment": "convertido a OSM usando http://GaleNUx.com", "divipola": "73168", "fixme": "Revisar: este punto fue creado por importaci\u00f3n directa", "is_in": "Colombia; Tolima ; Chaparral", "name": "Hacienda La Camelia", "note": "GEOPUNTO, PUNTO DE INTERES, 7f1ab57cceb98168fd322ef5fec58f79", "place": "locality", "source": "OCHA Colombia 2010"}}, {"type": "node", "id": 703219444, "lat": 3.6940776, "lon": -75.5936207, "tags": {"comment": "convertido a OSM usando http://GaleNUx.com", "divipola": "73168", "fixme": "Revisar: este punto fue creado por importaci\u00f3n directa", "is_in": "Colombia; Tolima ; Chaparral", "name": "Meson", "note": "GEOPUNTO, PUNTO DE INTERES, 874eb3831916632cf6c2beed788a25c6", "place": "locality", "source": "OCHA Colombia 2010"}}, {"type": "node", "id": 703219445, "lat": 3.7197169, "lon": -75.6087776, "tags": {"comment": "convertido a OSM usando http://GaleNUx.com", "divipola": "73168", "fixme": "Revisar: este punto fue creado por importaci\u00f3n directa", "is_in": "Colombia; Tolima ; Chaparral", "name": "Florencia", "note": "GEOPUNTO, PUNTO DE INTERES, dd4b480294a1a950ce14c672e1aae9f4", "place": "locality", "source": "OCHA Colombia 2010"}}, {"type": "node", "id": 703219446, "lat": 3.724958, "lon": -75.6066528, "tags": {"comment": "convertido a OSM usando http://GaleNUx.com", "divipola": "73168", "fixme": "Revisar: este punto fue creado por importaci\u00f3n directa", "is_in": "Colombia; Tolima ; Chaparral", "name": "Balcones", "note": "GEOPUNTO, PUNTO DE INTERES, 908c8b2858bf128ca09a67e44b7bc22a", "place": "locality", "source": "OCHA Colombia 2010"}}, {"type": "node", "id": 703219448, "lat": 3.6981855, "lon": -75.6050947, "tags": {"comment": "convertido a OSM usando http://GaleNUx.com", "divipola": "73168", "fixme": "Revisar: este punto fue creado por importaci\u00f3n directa", "is_in": "Colombia; Tolima ; Chaparral", "name": "Los Curas", "note": "GEOPUNTO, PUNTO DE INTERES, db899341dfcdf5ab89b531cf27720a12", "place": "locality", "source": "OCHA Colombia 2010"}}, {"type": "node", "id": 703219449, "lat": 3.7335989, "lon": -75.6558066, "tags": {"comment": "convertido a OSM usando http://GaleNUx.com", "divipola": "73168", "fixme": "Revisar: este punto fue creado por importaci\u00f3n directa", "is_in": "Colombia; Tolima ; Chaparral", "name": "La Caba\u00f1a", "note": "GEOPUNTO, PUNTO DE INTERES, 6fe4c9819f68ec0bdeb5ad3124ce867b", "place": "locality", "source": "OCHA Colombia 2010"}}, {"type": "node", "id": 703219450, "lat": 3.7195752, "lon": -75.6509904, "tags": {"comment": "convertido a OSM usando http://GaleNUx.com", "divipola": "73168", "fixme": "Revisar: este punto fue creado por importaci\u00f3n directa", "is_in": "Colombia; Tolima ; Chaparral", "name": "El Paraiso", "note": "GEOPUNTO, PUNTO DE INTERES, c4904e245b3da2adc331ec53ce1041fa", "place": "locality", "source": "OCHA Colombia 2010"}}, {"type": "node", "id": 703219451, "lat": 3.7309075, "lon": -75.5880962, "tags": {"comment": "convertido a OSM usando http://GaleNUx.com", "divipola": "73168", "fixme": "Revisar: este punto fue creado por importaci\u00f3n directa", "is_in": "Colombia; Tolima ; Chaparral", "name": "El Recreo", "note": "GEOPUNTO, PUNTO DE INTERES, 03c416e122a70ba54455af371d64fcd0", "place": "locality", "source": "OCHA Colombia 2010"}}, {"type": "node", "id": 703219452, "lat": 3.6997437, "lon": -75.6593479, "tags": {"comment": "convertido a OSM usando http://GaleNUx.com", "divipola": "73168", "fixme": "Revisar: este punto fue creado por importaci\u00f3n directa", "is_in": "Colombia; Tolima ; Chaparral", "name": "La Aurora", "note": "GEOPUNTO, PUNTO DE INTERES, 886df98701f3d2958739036626ba046d", "place": "locality", "source": "OCHA Colombia 2010"}}, {"type": "node", "id": 703219453, "lat": 3.7204251, "lon": -75.626626, "tags": {"comment": "convertido a OSM usando http://GaleNUx.com", "divipola": "73168", "fixme": "Revisar: este punto fue creado por importaci\u00f3n directa", "is_in": "Colombia; Tolima ; Chaparral", "name": "La Marina", "note": "GEOPUNTO, PUNTO DE INTERES, 694d81cd61fadc72d23f36dcacb87787", "place": "locality", "source": "OCHA Colombia 2010"}}, {"type": "node", "id": 703219456, "lat": 3.7486142, "lon": -75.6668556, "tags": {"comment": "convertido a OSM usando http://GaleNUx.com", "divipola": "73168", "fixme": "Revisar: este punto fue creado por importaci\u00f3n directa", "is_in": "Colombia; Tolima ; Chaparral", "name": "El Vergel", "note": "GEOPUNTO, PUNTO DE INTERES, 6fe7f68dfc33e1ce95048b14415c879f", "place": "locality", "source": "OCHA Colombia 2010"}}, {"type": "node", "id": 703219457, "lat": 3.7416731, "lon": -75.6650141, "tags": {"comment": "convertido a OSM usando http://GaleNUx.com", "divipola": "73168", "fixme": "Revisar: este punto fue creado por importaci\u00f3n directa", "is_in": "Colombia; Tolima ; Chaparral", "name": "Santa Lucia", "note": "GEOPUNTO, PUNTO DE INTERES, 3ec0b1b11a23ca92c10d15f315c2e27f", "place": "locality", "source": "OCHA Colombia 2010"}}, {"type": "node", "id": 703219458, "lat": 3.7559801, "lon": -75.6715301, "tags": {"comment": "convertido a OSM usando http://GaleNUx.com", "divipola": "73168", "fixme": "Revisar: este punto fue creado por importaci\u00f3n directa", "is_in": "Colombia; Tolima ; Chaparral", "name": "El Salado", "note": "GEOPUNTO, PUNTO DE INTERES, 16742802cd94e4ffa7eab52eb48c4e36", "place": "locality", "source": "OCHA Colombia 2010"}}, {"type": "node", "id": 703219467, "lat": 3.756465, "lon": -75.645217, "tags": {"comment": "convertido a OSM usando http://GaleNUx.com", "divipola": "73168", "fixme": "Revisar: este punto fue creado por importaci\u00f3n directa", "is_in": "Colombia; Tolima ; Chaparral", "name": "Aguas Claras", "note": "ADMINISTRATIVO, VEREDA, 5411dec9d8e83daa216371b8f9ff8d2d", "place": "hamlet", "source": "OCHA Colombia 2010"}}, {"type": "node", "id": 703219468, "lat": 3.7454388, "lon": -75.6488393, "tags": {"comment": "convertido a OSM usando http://GaleNUx.com", "divipola": "73168", "fixme": "Revisar: este punto fue creado por importaci\u00f3n directa", "is_in": "Colombia; Tolima ; Chaparral", "name": "Las Juntas", "note": "ADMINISTRATIVO, VEREDA, 78fab58e11f58b54abc86f008b67298a", "place": "hamlet", "source": "OCHA Colombia 2010"}}, {"type": "node", "id": 703219470, "lat": 3.7688706, "lon": -75.6638808, "tags": {"comment": "convertido a OSM usando http://GaleNUx.com", "divipola": "73168", "fixme": "Revisar: este punto fue creado por importaci\u00f3n directa", "is_in": "Colombia; Tolima ; Chaparral", "name": "La Tolda", "note": "GEOPUNTO, PUNTO DE INTERES, d4c98c35d1a4f1bdd980125f0b0aa78d", "place": "locality", "source": "OCHA Colombia 2010"}}, {"type": "node", "id": 703219471, "lat": 3.7589903, "lon": -75.6362497, "tags": {"comment": "convertido a OSM usando http://GaleNUx.com", "divipola": "73168", "fixme": "Revisar: este punto fue creado por importaci\u00f3n directa", "is_in": "Colombia; Tolima ; Chaparral", "name": "La Primavera", "note": "ADMINISTRATIVO, VEREDA, d1a4aba59d86cfb4e9abf5db3a6c7e39", "place": "hamlet", "source": "OCHA Colombia 2010"}}, {"type": "node", "id": 703219472, "lat": 3.7460644, "lon": -75.5862547, "tags": {"comment": "convertido a OSM usando http://GaleNUx.com", "divipola": "73168", "fixme": "Revisar: este punto fue creado por importaci\u00f3n directa", "is_in": "Colombia; Tolima ; Chaparral", "name": "El Canelo", "note": "GEOPUNTO, PUNTO DE INTERES, 14b137adf85150335273585ea81e068d", "place": "locality", "source": "OCHA Colombia 2010"}}, {"type": "node", "id": 703219473, "lat": 3.7379902, "lon": -75.5893711, "tags": {"comment": "convertido a OSM usando http://GaleNUx.com", "divipola": "73168", "fixme": "Revisar: este punto fue creado por importaci\u00f3n directa", "is_in": "Colombia; Tolima ; Chaparral", "name": "California", "note": "GEOPUNTO, PUNTO DE INTERES, 8874734041dce418b914646e8e37748a", "place": "locality", "source": "OCHA Colombia 2010"}}, {"type": "node", "id": 703219474, "lat": 3.7531471, "lon": -75.6019783, "tags": {"comment": "convertido a OSM usando http://GaleNUx.com", "divipola": "73168", "fixme": "Revisar: este punto fue creado por importaci\u00f3n directa", "is_in": "Colombia; Tolima ; Chaparral", "name": "El Parasol", "note": "GEOPUNTO, PUNTO DE INTERES, ff0e3c1e881df8004cb70ea2c7b088fb", "place": "locality", "source": "OCHA Colombia 2010"}}, {"type": "node", "id": 703219475, "lat": 3.7501724, "lon": -75.5984369, "tags": {"comment": "convertido a OSM usando http://GaleNUx.com", "divipola": "73168", "fixme": "Revisar: este punto fue creado por importaci\u00f3n directa", "is_in": "Colombia; Tolima ; Chaparral", "name": "La Soledad", "note": "GEOPUNTO, PUNTO DE INTERES, cf1fd257799aa603bea0d748816e9ad5", "place": "locality", "source": "OCHA Colombia 2010"}}, {"type": "node", "id": 703219476, "lat": 3.7437979, "lon": -75.5967371, "tags": {"comment": "convertido a OSM usando http://GaleNUx.com", "divipola": "73168", "fixme": "Revisar: este punto fue creado por importaci\u00f3n directa", "is_in": "Colombia; Tolima ; Chaparral", "name": "La Sonrisa", "note": "GEOPUNTO, PUNTO DE INTERES, fbf70da26254cf8da3df214a31ebf172", "place": "locality", "source": "OCHA Colombia 2010"}}, {"type": "node", "id": 703219480, "lat": 3.7600881, "lon": -75.6077861, "tags": {"comment": "convertido a OSM usando http://GaleNUx.com", "divipola": "73168", "fixme": "Revisar: este punto fue creado por importaci\u00f3n directa", "is_in": "Colombia; Tolima ; Chaparral", "name": "La Estrella", "note": "GEOPUNTO, PUNTO DE INTERES, e833c07cfca90abd466b3c6d3f5be412", "place": "locality", "source": "OCHA Colombia 2010"}}, {"type": "node", "id": 703219481, "lat": 3.7585299, "lon": -75.5900794, "tags": {"comment": "convertido a OSM usando http://GaleNUx.com", "divipola": "73168", "fixme": "Revisar: este punto fue creado por importaci\u00f3n directa", "is_in": "Colombia; Tolima ; Chaparral", "name": "La Libia", "note": "GEOPUNTO, PUNTO DE INTERES, e04a542e9d579fd1b99aa61805768a14", "place": "locality", "source": "OCHA Colombia 2010"}}, {"type": "node", "id": 703219482, "lat": 3.7636779, "lon": -75.6247043, "tags": {"comment": "convertido a OSM usando http://GaleNUx.com", "divipola": "73168", "fixme": "Revisar: este punto fue creado por importaci\u00f3n directa", "is_in": "Colombia; Tolima ; Chaparral", "name": "San Pedro Ambeima", "note": "ADMINISTRATIVO, VEREDA, a45e991620a71ec298726d5186c69faa", "place": "hamlet", "source": "OCHA Colombia 2010"}}, {"type": "node", "id": 703219485, "lat": 3.8208574, "lon": -75.6791794, "tags": {"comment": "convertido a OSM usando http://GaleNUx.com", "divipola": "73168", "fixme": "Revisar: este punto fue creado por importaci\u00f3n directa", "is_in": "Colombia; Tolima ; Chaparral", "name": "La Floresta", "note": "GEOPUNTO, PUNTO DE INTERES, 782391dad7da73fd594be3cded8755f7", "place": "locality", "source": "OCHA Colombia 2010"}}, {"type": "node", "id": 703219486, "lat": 3.829805, "lon": -75.7202371, "tags": {"comment": "convertido a OSM usando http://GaleNUx.com", "divipola": "73168", "fixme": "Revisar: este punto fue creado por importaci\u00f3n directa", "is_in": "Colombia; Tolima ; Chaparral", "name": "Aurora Hermosas", "note": "ADMINISTRATIVO, VEREDA, bae8a4daabb9747ee9f54c3cabf1d5c7", "place": "hamlet", "source": "OCHA Colombia 2010"}}, {"type": "node", "id": 703219487, "lat": 3.8648129, "lon": -75.6880342, "tags": {"comment": "convertido a OSM usando http://GaleNUx.com", "divipola": "73168", "fixme": "Revisar: este punto fue creado por importaci\u00f3n directa", "is_in": "Colombia; Tolima ; Chaparral", "name": "El Escobal", "note": "ADMINISTRATIVO, VEREDA, a7e756b570a215ae9b25b8b9c5117894", "place": "hamlet", "source": "OCHA Colombia 2010"}}, {"type": "node", "id": 703219488, "lat": 3.8431825, "lon": -75.6813628, "tags": {"comment": "convertido a OSM usando http://GaleNUx.com", "divipola": "73168", "fixme": "Revisar: este punto fue creado por importaci\u00f3n directa", "is_in": "Colombia; Tolima ; Chaparral", "name": "Davis", "note": "GEOPUNTO, PUNTO DE INTERES, d0adac86fd03a86fba187396a2dca7b8", "place": "locality", "source": "OCHA Colombia 2010"}}, {"type": "node", "id": 703219489, "lat": 3.8506493, "lon": -75.7159817, "tags": {"comment": "convertido a OSM usando http://GaleNUx.com", "divipola": "73168", "fixme": "Revisar: este punto fue creado por importaci\u00f3n directa", "is_in": "Colombia; Tolima ; Chaparral", "name": "El Oriente", "note": "GEOPUNTO, PUNTO DE INTERES, bce919d60073e365acdb232479019fbf", "place": "locality", "source": "OCHA Colombia 2010"}}, {"type": "node", "id": 703219490, "lat": 3.8558082, "lon": -75.726028, "tags": {"comment": "convertido a OSM usando http://GaleNUx.com", "divipola": "73168", "fixme": "Revisar: este punto fue creado por importaci\u00f3n directa", "is_in": "Colombia; Tolima ; Chaparral", "name": "Lorena", "note": "GEOPUNTO, PUNTO DE INTERES, b5c95a61a1bb3e30705d6412d46d5a1c", "place": "locality", "source": "OCHA Colombia 2010"}}, {"type": "node", "id": 703219504, "lat": 3.8256736, "lon": -75.7398071, "tags": {"comment": "convertido a OSM usando http://GaleNUx.com", "divipola": "73168", "fixme": "Revisar: este punto fue creado por importaci\u00f3n directa", "is_in": "Colombia; Tolima ; Chaparral", "name": "El Brillante", "note": "GEOPUNTO, PUNTO DE INTERES, 76225ac93f7b2fff1c3bb24affc8c045", "place": "locality", "source": "OCHA Colombia 2010"}}, {"type": "node", "id": 703219505, "lat": 3.8237627, "lon": -75.6833232, "tags": {"comment": "convertido a OSM usando http://GaleNUx.com", "divipola": "73168", "fixme": "Revisar: este punto fue creado por importaci\u00f3n directa", "is_in": "Colombia; Tolima ; Chaparral", "name": "Davis - Janeiro", "note": "ADMINISTRATIVO, VEREDA, ef33f025d62af16bdca917392051fe51", "place": "hamlet", "source": "OCHA Colombia 2010"}}, {"type": "node", "id": 703219506, "lat": 3.8062671, "lon": -75.5937624, "tags": {"comment": "convertido a OSM usando http://GaleNUx.com", "divipola": "73168", "fixme": "Revisar: este punto fue creado por importaci\u00f3n directa", "is_in": "Colombia; Tolima ; Chaparral", "name": "Vega Chiquita", "note": "GEOPUNTO, PUNTO DE INTERES, aeddf382bee5f9c275a05bb88b3d061a", "place": "locality", "source": "OCHA Colombia 2010"}}, {"type": "node", "id": 703219507, "lat": 3.8021592, "lon": -75.5879546, "tags": {"comment": "convertido a OSM usando http://GaleNUx.com", "divipola": "73168", "fixme": "Revisar: este punto fue creado por importaci\u00f3n directa", "is_in": "Colombia; Tolima ; Chaparral", "name": "El Moral", "note": "GEOPUNTO, PUNTO DE INTERES, e6fd133617699f2b741bdeb5305107be", "place": "locality", "source": "OCHA Colombia 2010"}}, {"type": "node", "id": 703219508, "lat": 3.796017, "lon": -75.6443354, "tags": {"comment": "convertido a OSM usando http://GaleNUx.com", "divipola": "73168", "fixme": "Revisar: este punto fue creado por importaci\u00f3n directa", "is_in": "Colombia; Tolima ; Chaparral", "name": "Brisas San Pablo Ambeima", "note": "ADMINISTRATIVO, VEREDA, fcfffbb8d641a9b02078794a8b7a4b81", "place": "hamlet", "source": "OCHA Colombia 2010"}}, {"type": "node", "id": 703219511, "lat": 3.7848492, "lon": -75.6091614, "tags": {"comment": "convertido a OSM usando http://GaleNUx.com", "divipola": "73168", "fixme": "Revisar: este punto fue creado por importaci\u00f3n directa", "is_in": "Colombia; Tolima ; Chaparral", "name": "El Bosque", "note": "ADMINISTRATIVO, VEREDA, 119fc45c912abd1203f3867964a1f436", "place": "hamlet", "source": "OCHA Colombia 2010"}}, {"type": "node", "id": 703219513, "lat": 3.7793102, "lon": -75.6624627, "tags": {"comment": "convertido a OSM usando http://GaleNUx.com", "divipola": "73168", "fixme": "Revisar: este punto fue creado por importaci\u00f3n directa", "is_in": "Colombia; Tolima ; Chaparral", "name": "San Marcos", "note": "ADMINISTRATIVO, VEREDA, 6705b23b5fb0feabd66bdc41ebe3002e", "place": "hamlet", "source": "OCHA Colombia 2010"}}, {"type": "node", "id": 703219516, "lat": 3.8206633, "lon": -75.6344002, "tags": {"comment": "convertido a OSM usando http://GaleNUx.com", "divipola": "73168", "fixme": "Revisar: este punto fue creado por importaci\u00f3n directa", "is_in": "Colombia; Tolima ; Chaparral", "name": "San Pablo Hermosas", "note": "ADMINISTRATIVO, VEREDA, f80a48f54374f3b7de76fc62e4fba931", "place": "hamlet", "source": "OCHA Colombia 2010"}}, {"type": "node", "id": 703219518, "lat": 3.8186717, "lon": -75.6050205, "tags": {"comment": "convertido a OSM usando http://GaleNUx.com", "divipola": "73168", "fixme": "Revisar: este punto fue creado por importaci\u00f3n directa", "is_in": "Colombia; Tolima ; Chaparral", "name": "Los SiUces", "note": "ADMINISTRATIVO, VEREDA, 66ad2d6412051db31ec4bd0c8b63ace3", "place": "hamlet", "source": "OCHA Colombia 2010"}}, {"type": "node", "id": 703219522, "lat": 3.8068973, "lon": -75.6193204, "tags": {"comment": "convertido a OSM usando http://GaleNUx.com", "divipola": "73168", "fixme": "Revisar: este punto fue creado por importaci\u00f3n directa", "is_in": "Colombia; Tolima ; Chaparral", "name": "El Pando - El Libano", "note": "ADMINISTRATIVO, VEREDA, 8322b2a330068d7b6040338baaef49b4", "place": "hamlet", "source": "OCHA Colombia 2010"}}, {"type": "node", "id": 703219524, "lat": 3.8552163, "lon": -75.6544023, "tags": {"comment": "convertido a OSM usando http://GaleNUx.com", "divipola": "73168", "fixme": "Revisar: este punto fue creado por importaci\u00f3n directa", "is_in": "Colombia; Tolima ; Chaparral", "name": "La Virginia", "note": "ADMINISTRATIVO, VEREDA, 545dadf10266070d65794adb13b8fcb2", "place": "hamlet", "source": "OCHA Colombia 2010"}}, {"type": "node", "id": 703219528, "lat": 3.8390614, "lon": -75.624695, "tags": {"comment": "convertido a OSM usando http://GaleNUx.com", "divipola": "73168", "fixme": "Revisar: este punto fue creado por importaci\u00f3n directa", "is_in": "Colombia; Tolima ; Chaparral", "name": "Holanda - Hermosas", "note": "ADMINISTRATIVO, VEREDA, 08e32a29c7288a593d1d6e2da9b9c409", "place": "hamlet", "source": "OCHA Colombia 2010"}}, {"type": "node", "id": 703219534, "lat": 3.8411461, "lon": -75.6528531, "tags": {"comment": "convertido a OSM usando http://GaleNUx.com", "divipola": "73168", "fixme": "Revisar: este punto fue creado por importaci\u00f3n directa", "is_in": "Colombia; Tolima ; Chaparral", "name": "Rio De Janeiro", "note": "GEOPUNTO, PUNTO DE INTERES, e97ff47eccd7d85d0f271836696795e0", "place": "locality", "source": "OCHA Colombia 2010"}}, {"type": "node", "id": 703219536, "lat": 3.8498348, "lon": -75.6384625, "tags": {"comment": "convertido a OSM usando http://GaleNUx.com", "divipola": "73168", "fixme": "Revisar: este punto fue creado por importaci\u00f3n directa", "is_in": "Colombia; Tolima ; Chaparral", "name": "La Virginia", "note": "GEOPUNTO, PUNTO DE INTERES, 2c66f791ba4f14a5ec3ed210b8463ecd", "place": "locality", "source": "OCHA Colombia 2010"}}, {"type": "node", "id": 703219543, "lat": 3.8339508, "lon": -75.6584193, "tags": {"comment": "convertido a OSM usando http://GaleNUx.com", "divipola": "73168", "fixme": "Revisar: este punto fue creado por importaci\u00f3n directa", "is_in": "Colombia; Tolima ; Chaparral", "name": "Barcelona", "note": "GEOPUNTO, PUNTO DE INTERES, 2d55b4b40560faa518febe80dea6f526", "place": "locality", "source": "OCHA Colombia 2010"}}, {"type": "node", "id": 703219544, "lat": 3.8296065, "lon": -75.6586908, "tags": {"comment": "convertido a OSM usando http://GaleNUx.com", "divipola": "73168", "fixme": "Revisar: este punto fue creado por importaci\u00f3n directa", "is_in": "Colombia; Tolima ; Chaparral", "name": "La Esperanza", "note": "GEOPUNTO, PUNTO DE INTERES, b7aba66bd6c6bceef2fe58decf5797e2", "place": "locality", "source": "OCHA Colombia 2010"}}, {"type": "node", "id": 703219553, "lat": 3.8545583, "lon": -75.6453144, "tags": {"comment": "convertido a OSM usando http://GaleNUx.com", "divipola": "73168", "fixme": "Revisar: este punto fue creado por importaci\u00f3n directa", "is_in": "Colombia; Tolima ; Chaparral", "name": "Virginia", "note": "GEOPUNTO, PUNTO DE INTERES, d6d9000c17fb47bab5980147b3f2d20c", "place": "locality", "source": "OCHA Colombia 2010"}}, {"type": "node", "id": 703219556, "lat": 3.8620362, "lon": -75.6181004, "tags": {"comment": "convertido a OSM usando http://GaleNUx.com", "divipola": "73168", "fixme": "Revisar: este punto fue creado por importaci\u00f3n directa", "is_in": "Colombia; Tolima ; Chaparral", "name": "Argentina - Hermosas", "note": "ADMINISTRATIVO, VEREDA, dc8c9ce6e21cdf2428cb150b39c894be", "place": "hamlet", "source": "OCHA Colombia 2010"}}, {"type": "node", "id": 703219557, "lat": 3.8559564, "lon": -75.5988751, "tags": {"comment": "convertido a OSM usando http://GaleNUx.com", "divipola": "73168", "fixme": "Revisar: este punto fue creado por importaci\u00f3n directa", "is_in": "Colombia; Tolima ; Chaparral", "name": "San Roque", "note": "ADMINISTRATIVO, VEREDA, 1d38a490f179354b87ea35b34e475b06", "place": "hamlet", "source": "OCHA Colombia 2010"}}, {"type": "node", "id": 703219559, "lat": 3.8671274, "lon": -75.6531822, "tags": {"comment": "convertido a OSM usando http://GaleNUx.com", "divipola": "73168", "fixme": "Revisar: este punto fue creado por importaci\u00f3n directa", "is_in": "Colombia; Tolima ; Chaparral", "name": "Virginia - Alta", "note": "ADMINISTRATIVO, VEREDA, 61ecf57ffd0ad23deb89c0fa8e232a1a", "place": "hamlet", "source": "OCHA Colombia 2010"}}, {"type": "node", "id": 703219560, "lat": 3.836884, "lon": -75.5879083, "tags": {"comment": "convertido a OSM usando http://GaleNUx.com", "divipola": "73168", "fixme": "Revisar: este punto fue creado por importaci\u00f3n directa", "is_in": "Colombia; Tolima ; Chaparral", "name": "Santa Barbara", "note": "ADMINISTRATIVO, VEREDA, 9b67416db57cb6559714f184b084e2bc", "place": "village", "source": "OCHA Colombia 2010"}}, {"type": "node", "id": 703219561, "lat": 3.8316462, "lon": -75.647376, "tags": {"comment": "convertido a OSM usando http://GaleNUx.com", "divipola": "73168", "fixme": "Revisar: este punto fue creado por importaci\u00f3n directa", "is_in": "Colombia; Tolima ; Chaparral", "name": "El Recreo - Sec. Davis", "note": "ADMINISTRATIVO, VEREDA, fe99156f521d7f8ba701017b2a5c1a9e", "place": "hamlet", "source": "OCHA Colombia 2010"}}, {"type": "node", "id": 703219567, "lat": 3.5576653, "lon": -75.5159946, "tags": {"comment": "convertido a OSM usando http://GaleNUx.com", "divipola": "73168", "fixme": "Revisar: este punto fue creado por importaci\u00f3n directa", "is_in": "Colombia; Tolima ; Chaparral", "name": "El Diamante", "note": "GEOPUNTO, PUNTO DE INTERES, abc0e104eeb071ac9e32a50a51ca7950", "place": "locality", "source": "OCHA Colombia 2010"}}, {"type": "node", "id": 703219569, "lat": 3.5661958, "lon": -75.5082645, "tags": {"comment": "convertido a OSM usando http://GaleNUx.com", "divipola": "73168", "fixme": "Revisar: este punto fue creado por importaci\u00f3n directa", "is_in": "Colombia; Tolima ; Chaparral", "name": "La Linea", "note": "GEOPUNTO, PUNTO DE INTERES, 139fadf9b5418968e2418a0d7c372a24", "place": "locality", "source": "OCHA Colombia 2010"}}, {"type": "node", "id": 703219575, "lat": 3.5787717, "lon": -75.5219441, "tags": {"comment": "convertido a OSM usando http://GaleNUx.com", "divipola": "73168", "fixme": "Revisar: este punto fue creado por importaci\u00f3n directa", "is_in": "Colombia; Tolima ; Chaparral", "name": "La Soledad", "note": "GEOPUNTO, PUNTO DE INTERES, 82040019bf68b695a64f39c4e94e4a97", "place": "locality", "source": "OCHA Colombia 2010"}}, {"type": "node", "id": 703219580, "lat": 3.5709807, "lon": -75.5141531, "tags": {"comment": "convertido a OSM usando http://GaleNUx.com", "divipola": "73168", "fixme": "Revisar: este punto fue creado por importaci\u00f3n directa", "is_in": "Colombia; Tolima ; Chaparral", "name": "Betania", "note": "GEOPUNTO, PUNTO DE INTERES, 5080f219a8e7204f4ad8fb92f9b8d657", "place": "locality", "source": "OCHA Colombia 2010"}}, {"type": "node", "id": 703219582, "lat": 3.5623399, "lon": -75.515428, "tags": {"comment": "convertido a OSM usando http://GaleNUx.com", "divipola": "73168", "fixme": "Revisar: este punto fue creado por importaci\u00f3n directa", "is_in": "Colombia; Tolima ; Chaparral", "name": "La Violeta", "note": "GEOPUNTO, PUNTO DE INTERES, 77038d8be3cde41ebc76fc40fb462af3", "place": "locality", "source": "OCHA Colombia 2010"}}, {"type": "node", "id": 703219584, "lat": 3.5899623, "lon": -75.5774722, "tags": {"comment": "convertido a OSM usando http://GaleNUx.com", "divipola": "73168", "fixme": "Revisar: este punto fue creado por importaci\u00f3n directa", "is_in": "Colombia; Tolima ; Chaparral", "name": "La Sierra", "note": "GEOPUNTO, PUNTO DE INTERES, c4c88a729d14c709d630b71bd3c8bbda", "place": "locality", "source": "OCHA Colombia 2010"}}, {"type": "node", "id": 703219588, "lat": 3.5940702, "lon": -75.5549493, "tags": {"comment": "convertido a OSM usando http://GaleNUx.com", "divipola": "73168", "fixme": "Revisar: este punto fue creado por importaci\u00f3n directa", "is_in": "Colombia; Tolima ; Chaparral", "name": "Santa Rita", "note": "GEOPUNTO, PUNTO DE INTERES, a870772499e8f3c310ba12047043b26e", "place": "locality", "source": "OCHA Colombia 2010"}}, {"type": "node", "id": 703219659, "lat": 3.5760803, "lon": -75.5688314, "tags": {"comment": "convertido a OSM usando http://GaleNUx.com", "divipola": "73168", "fixme": "Revisar: este punto fue creado por importaci\u00f3n directa", "is_in": "Colombia; Tolima ; Chaparral", "name": "La Lindosa", "note": "GEOPUNTO, PUNTO DE INTERES, 3e86c32a729706f850a873e3bf48b521", "place": "locality", "source": "OCHA Colombia 2010"}}, {"type": "node", "id": 703219684, "lat": 3.5296463, "lon": -75.4385721, "tags": {"comment": "convertido a OSM usando http://GaleNUx.com", "divipola": "73168", "fixme": "Revisar: este punto fue creado por importaci\u00f3n directa", "is_in": "Colombia; Tolima ; Chaparral", "name": "Araca Mangas", "note": "GEOPUNTO, PUNTO DE INTERES, 166c82bc5197e6b72ad1cd4a4b94331f", "place": "locality", "source": "OCHA Colombia 2010"}}, {"type": "node", "id": 703219704, "lat": 3.5711224, "lon": -75.4846892, "tags": {"comment": "convertido a OSM usando http://GaleNUx.com", "divipola": "73168", "fixme": "Revisar: este punto fue creado por importaci\u00f3n directa", "is_in": "Colombia; Tolima ; Chaparral", "name": "Las Delicias", "note": "GEOPUNTO, PUNTO DE INTERES, 4d01ff904f9b31444e772a4dfa57408b", "place": "locality", "source": "OCHA Colombia 2010"}}, {"type": "node", "id": 703219723, "lat": 3.6018612, "lon": -75.4912053, "tags": {"comment": "convertido a OSM usando http://GaleNUx.com", "divipola": "73168", "fixme": "Revisar: este punto fue creado por importaci\u00f3n directa", "is_in": "Colombia; Tolima ; Chaparral", "name": "Las Cruces", "note": "GEOPUNTO, PUNTO DE INTERES, 851eb182f5461ec3b49f1e1dce39eb5b", "place": "locality", "source": "OCHA Colombia 2010"}}, {"type": "node", "id": 703219728, "lat": 3.5762219, "lon": -75.4914886, "tags": {"comment": "convertido a OSM usando http://GaleNUx.com", "divipola": "73168", "fixme": "Revisar: este punto fue creado por importaci\u00f3n directa", "is_in": "Colombia; Tolima ; Chaparral", "name": "La Granja", "note": "GEOPUNTO, PUNTO DE INTERES, 3ac66bfe612697a926a9728cabb4a27a", "place": "locality", "source": "OCHA Colombia 2010"}}, {"type": "node", "id": 703219733, "lat": 3.6446405, "lon": -75.5565075, "tags": {"comment": "convertido a OSM usando http://GaleNUx.com", "divipola": "73168", "fixme": "Revisar: este punto fue creado por importaci\u00f3n directa", "is_in": "Colombia; Tolima ; Chaparral", "name": "Irco", "note": "GEOPUNTO, PUNTO DE INTERES, e951235fa60057da74605feb5f771459", "place": "locality", "source": "OCHA Colombia 2010"}}, {"type": "node", "id": 703219734, "lat": 3.6381245, "lon": -75.547725, "tags": {"comment": "convertido a OSM usando http://GaleNUx.com", "divipola": "73168", "fixme": "Revisar: este punto fue creado por importaci\u00f3n directa", "is_in": "Colombia; Tolima ; Chaparral", "name": "El Viento", "note": "GEOPUNTO, PUNTO DE INTERES, e62f02b46b5e3a769757a94255fa1363", "place": "locality", "source": "OCHA Colombia 2010"}}, {"type": "node", "id": 703219748, "lat": 3.6666282, "lon": -75.547422, "tags": {"comment": "convertido a OSM usando http://GaleNUx.com", "divipola": "73168", "fixme": "Revisar: este punto fue creado por importaci\u00f3n directa", "is_in": "Colombia; Tolima ; Chaparral", "name": "Altamira", "note": "GEOPUNTO, PUNTO DE INTERES, 218725257a79e8e59820935bc90ed8d5", "place": "locality", "source": "OCHA Colombia 2010"}}, {"type": "node", "id": 703219753, "lat": 3.6654636, "lon": -75.5786055, "tags": {"comment": "convertido a OSM usando http://GaleNUx.com", "divipola": "73168", "fixme": "Revisar: este punto fue creado por importaci\u00f3n directa", "is_in": "Colombia; Tolima ; Chaparral", "name": "Providencia", "note": "GEOPUNTO, PUNTO DE INTERES, d1fa5fb22f071105495a63b6ff60e5b6", "place": "locality", "source": "OCHA Colombia 2010"}}, {"type": "node", "id": 703219756, "lat": 3.636283, "lon": -75.4686824, "tags": {"comment": "convertido a OSM usando http://GaleNUx.com", "divipola": "73168", "fixme": "Revisar: este punto fue creado por importaci\u00f3n directa", "is_in": "Colombia; Tolima ; Chaparral", "name": "La Balsita", "note": "GEOPUNTO, PUNTO DE INTERES, 2483f2fb1f512fbe1f09184ec509ee35", "place": "locality", "source": "OCHA Colombia 2010"}}, {"type": "node", "id": 703219757, "lat": 3.6287753, "lon": -75.4448846, "tags": {"comment": "convertido a OSM usando http://GaleNUx.com", "divipola": "73168", "fixme": "Revisar: este punto fue creado por importaci\u00f3n directa", "is_in": "Colombia; Tolima ; Chaparral", "name": "Tambillos", "note": "GEOPUNTO, PUNTO DE INTERES, 711209eaf2ba2fe5045f49f12c81320b", "place": "locality", "source": "OCHA Colombia 2010"}}, {"type": "node", "id": 703219758, "lat": 3.6165931, "lon": -75.4836976, "tags": {"comment": "convertido a OSM usando http://GaleNUx.com", "divipola": "73168", "fixme": "Revisar: este punto fue creado por importaci\u00f3n directa", "is_in": "Colombia; Tolima ; Chaparral", "name": "Buenos Aires", "note": "GEOPUNTO, PUNTO DE INTERES, 8c0a45151f149d70676316b470f716cf", "place": "locality", "source": "OCHA Colombia 2010"}}, {"type": "node", "id": 703219760, "lat": 3.6348664, "lon": -75.4440347, "tags": {"comment": "convertido a OSM usando http://GaleNUx.com", "divipola": "73168", "fixme": "Revisar: este punto fue creado por importaci\u00f3n directa", "is_in": "Colombia; Tolima ; Chaparral", "name": "Cueva De Tuluni", "note": "GEOPUNTO, PUNTO DE INTERES, df488d2ffeae06a6f399e4719cff6fba", "place": "locality", "source": "OCHA Colombia 2010"}}, {"type": "node", "id": 703219761, "lat": 3.6096521, "lon": -75.4936134, "tags": {"comment": "convertido a OSM usando http://GaleNUx.com", "divipola": "73168", "fixme": "Revisar: este punto fue creado por importaci\u00f3n directa", "is_in": "Colombia; Tolima ; Chaparral", "name": "El Totumo", "note": "GEOPUNTO, PUNTO DE INTERES, e6bd1537d9dc12203db4854427a5ba97", "place": "locality", "source": "OCHA Colombia 2010"}}, {"type": "node", "id": 703219762, "lat": 3.6524315, "lon": -75.4720821, "tags": {"comment": "convertido a OSM usando http://GaleNUx.com", "divipola": "73168", "fixme": "Revisar: este punto fue creado por importaci\u00f3n directa", "is_in": "Colombia; Tolima ; Chaparral", "name": "Tuluni", "note": "GEOPUNTO, PUNTO DE INTERES, e63626679e6e43fa7a59c9f07472cd8c", "place": "locality", "source": "OCHA Colombia 2010"}}, {"type": "node", "id": 703219766, "lat": 3.6896556, "lon": -75.4808694, "tags": {"comment": "convertido a OSM usando http://GaleNUx.com", "divipola": "73168", "is_in": "Colombia;Tolima;Chaparral", "name": "La Lopez", "note": "GEOPUNTO, PUNTO DE INTERES, 43122be71f30e36d1fe7ab2a5be6e32b", "place": "locality", "source": "OCHA Colombia 2010"}}, {"type": "node", "id": 703219828, "lat": 3.6045526, "lon": -75.3879399, "tags": {"comment": "convertido a OSM usando http://GaleNUx.com", "divipola": "73168", "fixme": "Revisar: este punto fue creado por importaci\u00f3n directa", "is_in": "Colombia; Tolima ; Chaparral", "name": "Santa Rosa", "note": "GEOPUNTO, PUNTO DE INTERES, e0ee1b3e4498123e6c72cae8809b14c4", "place": "locality", "source": "OCHA Colombia 2010"}}, {"type": "node", "id": 703219831, "lat": 3.6461987, "lon": -75.3992722, "tags": {"comment": "convertido a OSM usando http://GaleNUx.com", "divipola": "73168", "fixme": "Revisar: este punto fue creado por importaci\u00f3n directa", "is_in": "Colombia; Tolima ; Chaparral", "name": "Mesetas De El Espinal", "note": "GEOPUNTO, PUNTO DE INTERES, ac8171c82a70bbb917d25fcea0de46f2", "place": "locality", "source": "OCHA Colombia 2010"}}, {"type": "node", "id": 703219836, "lat": 3.7318991, "lon": -75.5719477, "tags": {"comment": "convertido a OSM usando http://GaleNUx.com", "divipola": "73168", "fixme": "Revisar: este punto fue creado por importaci\u00f3n directa", "is_in": "Colombia; Tolima ; Chaparral", "name": "Hacienda Portugal", "note": "GEOPUNTO, PUNTO DE INTERES, 15fc698702a3c13afced748ecf20e988", "place": "locality", "source": "OCHA Colombia 2010"}}, {"type": "node", "id": 703219837, "lat": 3.7015852, "lon": -75.5667066, "tags": {"comment": "convertido a OSM usando http://GaleNUx.com", "divipola": "73168", "fixme": "Revisar: este punto fue creado por importaci\u00f3n directa", "is_in": "Colombia; Tolima ; Chaparral", "name": "Hacienda Jazminia", "note": "GEOPUNTO, PUNTO DE INTERES, 083866db84cb5f4e0306bedf77e53b00", "place": "locality", "source": "OCHA Colombia 2010"}}, {"type": "node", "id": 703219838, "lat": 3.7259496, "lon": -75.5532495, "tags": {"comment": "convertido a OSM usando http://GaleNUx.com", "divipola": "73168", "fixme": "Revisar: este punto fue creado por importaci\u00f3n directa", "is_in": "Colombia; Tolima ; Chaparral", "name": "San Pedro", "note": "GEOPUNTO, PUNTO DE INTERES, 02e57a9139ee8946ca67d523c85570d3", "place": "locality", "source": "OCHA Colombia 2010"}}, {"type": "node", "id": 703219840, "lat": 3.6954941, "lon": -75.5548077, "tags": {"comment": "convertido a OSM usando http://GaleNUx.com", "divipola": "73168", "fixme": "Revisar: este punto fue creado por importaci\u00f3n directa", "is_in": "Colombia; Tolima ; Chaparral", "name": "Las Cruces", "note": "GEOPUNTO, PUNTO DE INTERES, 680cc15a4f0ef5233a65b1e5a5d0cb8e", "place": "locality", "source": "OCHA Colombia 2010"}}, {"type": "node", "id": 703219841, "lat": 3.7299159, "lon": -75.5769056, "tags": {"comment": "convertido a OSM usando http://GaleNUx.com", "divipola": "73168", "fixme": "Revisar: este punto fue creado por importaci\u00f3n directa", "is_in": "Colombia; Tolima ; Chaparral", "name": "Albania", "note": "GEOPUNTO, PUNTO DE INTERES, 55f5413660e7359737b5ea5424da0b1b", "place": "locality", "source": "OCHA Colombia 2010"}}, {"type": "node", "id": 703219842, "lat": 3.7129912, "lon": -75.5260172, "tags": {"comment": "convertido a OSM usando http://GaleNUx.com", "divipola": "73168", "fixme": "Revisar: este punto fue creado por importaci\u00f3n directa", "is_in": "Colombia;Tolima;Chaparral", "name": "Aguayo", "note": "GEOPUNTO, PUNTO DE INTERES, bead5202bd4dddc21315c7ef3ad9d69b", "place": "locality", "source": "OCHA Colombia 2010"}}, {"type": "node", "id": 703219843, "lat": 3.7229749, "lon": -75.5062205, "tags": {"comment": "convertido a OSM usando http://GaleNUx.com", "divipola": "73168", "fixme": "Revisar: este punto fue creado por importaci\u00f3n directa", "is_in": "Colombia; Tolima ; Chaparral", "name": "Granja Agricola", "note": "GEOPUNTO, PUNTO DE INTERES, 4f81e6086db5d9d59e0756f68feb9c5e", "place": "locality", "source": "OCHA Colombia 2010"}}, {"type": "node", "id": 703219844, "lat": 3.7020102, "lon": -75.5213775, "tags": {"comment": "convertido a OSM usando http://GaleNUx.com", "divipola": "73168", "fixme": "Revisar: este punto fue creado por importaci\u00f3n directa", "is_in": "Colombia; Tolima ; Chaparral", "name": "El Guamal", "note": "GEOPUNTO, PUNTO DE INTERES, 2393780e2d80d0c297d20cfe71eeca29", "place": "locality", "source": "OCHA Colombia 2010"}}, {"type": "node", "id": 703219846, "lat": 3.7289243, "lon": -75.5230773, "tags": {"comment": "convertido a OSM usando http://GaleNUx.com", "divipola": "73168", "fixme": "Revisar: este punto fue creado por importaci\u00f3n directa", "is_in": "Colombia; Tolima ; Chaparral", "name": "Buenos Aires", "note": "GEOPUNTO, PUNTO DE INTERES, bf0971bd5fd7f624686a3870f31c3cc2", "place": "locality", "source": "OCHA Colombia 2010"}}, {"type": "node", "id": 703219847, "lat": 3.7335989, "lon": -75.5283185, "tags": {"comment": "convertido a OSM usando http://GaleNUx.com", "divipola": "73168", "fixme": "Revisar: este punto fue creado por importaci\u00f3n directa", "is_in": "Colombia; Tolima ; Chaparral", "name": "Los Pozos", "note": "GEOPUNTO, PUNTO DE INTERES, 8d35a373d2a1adc453a0e74414783f79", "place": "locality", "source": "OCHA Colombia 2010"}}, {"type": "node", "id": 703219850, "lat": 3.7514472, "lon": -75.5807303, "tags": {"comment": "convertido a OSM usando http://GaleNUx.com", "divipola": "73168", "fixme": "Revisar: este punto fue creado por importaci\u00f3n directa", "is_in": "Colombia; Tolima ; Chaparral", "name": "Lagunilla", "note": "GEOPUNTO, PUNTO DE INTERES, dd915f025b0916c947e4f4a53297f304", "place": "locality", "source": "OCHA Colombia 2010"}}, {"type": "node", "id": 703219855, "lat": 3.75768, "lon": -75.5757724, "tags": {"comment": "convertido a OSM usando http://GaleNUx.com", "divipola": "73168", "fixme": "Revisar: este punto fue creado por importaci\u00f3n directa", "is_in": "Colombia; Tolima ; Chaparral", "name": "Vallecito", "note": "GEOPUNTO, PUNTO DE INTERES, 2e831d90609fabe75bcd4d13b8d0abe2", "place": "locality", "source": "OCHA Colombia 2010"}}, {"type": "node", "id": 703219858, "lat": 3.7738285, "lon": -75.5369593, "tags": {"comment": "convertido a OSM usando http://GaleNUx.com", "divipola": "73168", "fixme": "Revisar: este punto fue creado por importaci\u00f3n directa", "is_in": "Colombia; Tolima ; Chaparral", "name": "Mate", "note": "GEOPUNTO, PUNTO DE INTERES, 564035cc8f793114a22632b8ddc903e0", "place": "locality", "source": "OCHA Colombia 2010"}}, {"type": "node", "id": 703219860, "lat": 3.7746784, "lon": -75.5713811, "tags": {"comment": "convertido a OSM usando http://GaleNUx.com", "divipola": "73168", "fixme": "Revisar: este punto fue creado por importaci\u00f3n directa", "is_in": "Colombia; Tolima ; Chaparral", "name": "La Victoria", "note": "GEOPUNTO, PUNTO DE INTERES, b05e2bf2c8eccf2e1db2a66e98626149", "place": "locality", "source": "OCHA Colombia 2010"}}, {"type": "node", "id": 703219862, "lat": 3.7623545, "lon": -75.575914, "tags": {"comment": "convertido a OSM usando http://GaleNUx.com", "divipola": "73168", "fixme": "Revisar: este punto fue creado por importaci\u00f3n directa", "is_in": "Colombia; Tolima ; Chaparral", "name": "El Guadual", "note": "GEOPUNTO, PUNTO DE INTERES, 574682646320172eef2d83cc27a4bff1", "place": "locality", "source": "OCHA Colombia 2010"}}, {"type": "node", "id": 703219866, "lat": 3.7615046, "lon": -75.523219, "tags": {"comment": "convertido a OSM usando http://GaleNUx.com", "divipola": "73168", "fixme": "Revisar: este punto fue creado por importaci\u00f3n directa", "is_in": "Colombia; Tolima ; Chaparral", "name": "El Tesoro", "note": "GEOPUNTO, PUNTO DE INTERES, 363f4b610c044d90cb762ed531b1c86f", "place": "locality", "source": "OCHA Colombia 2010"}}, {"type": "node", "id": 703219867, "lat": 3.7408232, "lon": -75.5325681, "tags": {"comment": "convertido a OSM usando http://GaleNUx.com", "divipola": "73168", "fixme": "Revisar: este punto fue creado por importaci\u00f3n directa", "is_in": "Colombia; Tolima ; Chaparral", "name": "Santa Ana", "note": "GEOPUNTO, PUNTO DE INTERES, b43b515875a57fd503cc9805b1a86443", "place": "locality", "source": "OCHA Colombia 2010"}}, {"type": "node", "id": 703219868, "lat": 3.7510223, "lon": -75.5261937, "tags": {"comment": "convertido a OSM usando http://GaleNUx.com", "divipola": "73168", "fixme": "Revisar: este punto fue creado por importaci\u00f3n directa", "is_in": "Colombia; Tolima ; Chaparral", "name": "Crucero De Marta", "note": "GEOPUNTO, PUNTO DE INTERES, 2126e16d21446e63be9267323ed2aa7b", "place": "locality", "source": "OCHA Colombia 2010"}}, {"type": "node", "id": 703219870, "lat": 3.7245851, "lon": -75.485156, "tags": {"comment": "convertido a OSM usando http://GaleNUx.com", "divipola": "73168", "name": "Chaparral", "place": "town", "source": "OCHA Colombia 2010", "wikidata": "Q1977885", "wikipedia": "es:Chaparral (Tolima)"}}, {"type": "node", "id": 703219872, "lat": 3.7335989, "lon": -75.469674, "tags": {"comment": "convertido a OSM usando http://GaleNUx.com", "divipola": "73168", "fixme": "Revisar: este punto fue creado por importaci\u00f3n directa", "is_in": "Colombia; Tolima ; Chaparral", "name": "Chiguali", "note": "GEOPUNTO, PUNTO DE INTERES, 7bd08bf462426c69773f88519709b68c", "place": "locality", "source": "OCHA Colombia 2010"}}, {"type": "node", "id": 703219874, "lat": 3.7178754, "lon": -75.4178288, "tags": {"comment": "convertido a OSM usando http://GaleNUx.com", "divipola": "73168", "fixme": "Revisar: este punto fue creado por importaci\u00f3n directa", "is_in": "Colombia; Tolima ; Chaparral", "name": "Madro\u00f1al", "note": "GEOPUNTO, PUNTO DE INTERES, 5a8c6eccca4ef6a544fc976b04cac848", "place": "locality", "source": "OCHA Colombia 2010"}}, {"type": "node", "id": 703219875, "lat": 3.7337406, "lon": -75.4519673, "tags": {"comment": "convertido a OSM usando http://GaleNUx.com", "divipola": "73168", "fixme": "Revisar: este punto fue creado por importaci\u00f3n directa", "is_in": "Colombia; Tolima ; Chaparral", "name": "El Refugio", "note": "GEOPUNTO, PUNTO DE INTERES, af5a8e55a9b2530b3a22fb6ee3fb6b37", "place": "locality", "source": "OCHA Colombia 2010"}}, {"type": "node", "id": 703219876, "lat": 3.7083846, "lon": -75.4437514, "tags": {"comment": "convertido a OSM usando http://GaleNUx.com", "divipola": "73168", "fixme": "Revisar: este punto fue creado por importaci\u00f3n directa", "is_in": "Colombia; Tolima ; Chaparral", "name": "Las Mercedes", "note": "GEOPUNTO, PUNTO DE INTERES, 54771b50425bacfa89696e27ca546ebf", "place": "locality", "source": "OCHA Colombia 2010"}}, {"type": "node", "id": 703219879, "lat": 3.7229749, "lon": -75.4539504, "tags": {"comment": "convertido a OSM usando http://GaleNUx.com", "divipola": "73168", "fixme": "Revisar: este punto fue creado por importaci\u00f3n directa", "is_in": "Colombia; Tolima ; Chaparral", "name": "Chircal", "note": "GEOPUNTO, PUNTO DE INTERES, d5094617e0a58a18d7865d76f7446364", "place": "locality", "source": "OCHA Colombia 2010"}}, {"type": "node", "id": 703219883, "lat": 3.7558385, "lon": -75.4967298, "tags": {"comment": "convertido a OSM usando http://GaleNUx.com", "divipola": "73168", "fixme": "Revisar: este punto fue creado por importaci\u00f3n directa", "is_in": "Colombia; Tolima ; Chaparral", "name": "El Roble", "note": "GEOPUNTO, PUNTO DE INTERES, c2b7b2863a434b73711651da59ae13e2", "place": "locality", "source": "OCHA Colombia 2010"}}, {"type": "node", "id": 703219888, "lat": 3.7783614, "lon": -75.4601832, "tags": {"comment": "convertido a OSM usando http://GaleNUx.com", "divipola": "73168", "fixme": "Revisar: este punto fue creado por importaci\u00f3n directa", "is_in": "Colombia; Tolima ; Chaparral", "name": "El Carmen", "note": "GEOPUNTO, PUNTO DE INTERES, 6ec0b997615c4b25b487d0d0bdd2ccf5", "place": "locality", "source": "OCHA Colombia 2010"}}, {"type": "node", "id": 703219889, "lat": 3.7588132, "lon": -75.4243448, "tags": {"comment": "convertido a OSM usando http://GaleNUx.com", "divipola": "73168", "fixme": "Revisar: este punto fue creado por importaci\u00f3n directa", "is_in": "Colombia; Tolima ; Chaparral", "name": "Santa Ines", "note": "GEOPUNTO, PUNTO DE INTERES, 6a3706b8bd400da54e42cba046b7e3d7", "place": "locality", "source": "OCHA Colombia 2010"}}, {"type": "node", "id": 703219890, "lat": 3.7943682, "lon": -75.5056539, "tags": {"comment": "convertido a OSM usando http://GaleNUx.com", "divipola": "73168", "fixme": "Revisar: este punto fue creado por importaci\u00f3n directa", "is_in": "Colombia; Tolima ; Chaparral", "name": "Mataredonda", "note": "GEOPUNTO, PUNTO DE INTERES, 5bf707ac50fde793ea4e1533c8e1dba1", "place": "locality", "source": "OCHA Colombia 2010"}}, {"type": "node", "id": 703219891, "lat": 3.8063064, "lon": -75.5312623, "tags": {"comment": "convertido a OSM usando http://GaleNUx.com", "divipola": "73168", "fixme": "Revisar: este punto fue creado por importaci\u00f3n directa", "is_in": "Colombia; Tolima ; Chaparral", "name": "Potrerito De Lugo", "note": "GEOPUNTO, PUNTO DE INTERES, 10093b412eda7cd2f78027694a3d3a40", "place": "locality", "source": "OCHA Colombia 2010"}}, {"type": "node", "id": 703219893, "lat": 3.8139164, "lon": -75.576764, "tags": {"comment": "convertido a OSM usando http://GaleNUx.com", "divipola": "73168", "fixme": "Revisar: este punto fue creado por importaci\u00f3n directa", "is_in": "Colombia; Tolima ; Chaparral", "name": "Agua Bonita", "note": "GEOPUNTO, PUNTO DE INTERES, 2fb5426d6ddf36e8824690a8baf89b47", "place": "locality", "source": "OCHA Colombia 2010"}}, {"type": "node", "id": 703219894, "lat": 3.7959264, "lon": -75.5526829, "tags": {"comment": "convertido a OSM usando http://GaleNUx.com", "divipola": "73168", "fixme": "Revisar: este punto fue creado por importaci\u00f3n directa", "is_in": "Colombia; Tolima ; Chaparral", "name": "Barcelona", "note": "GEOPUNTO, PUNTO DE INTERES, 11a4ebbd1b10c5b9994683a177c5c2e9", "place": "locality", "source": "OCHA Colombia 2010"}}, {"type": "node", "id": 703219896, "lat": 3.8290634, "lon": -75.5150562, "tags": {"comment": "convertido a OSM usando http://GaleNUx.com", "divipola": "73168", "fixme": "Revisar: este punto fue creado por importaci\u00f3n directa", "is_in": "Colombia; Tolima ; Chaparral", "name": "Pedregal", "note": "GEOPUNTO, PUNTO DE INTERES, f2bd1121e3a7da1260243adb59462658", "place": "locality", "source": "OCHA Colombia 2010"}}, {"type": "node", "id": 703219897, "lat": 3.8430467, "lon": -75.5301257, "tags": {"comment": "convertido a OSM usando http://GaleNUx.com", "divipola": "73168", "fixme": "Revisar: este punto fue creado por importaci\u00f3n directa", "is_in": "Colombia; Tolima ; Chaparral", "name": "Potrerito", "note": "GEOPUNTO, PUNTO DE INTERES, cc444227df8f846a3c578ec2fcf3bdaf", "place": "locality", "source": "OCHA Colombia 2010"}}, {"type": "node", "id": 703219898, "lat": 3.8384309, "lon": -75.5279535, "tags": {"comment": "convertido a OSM usando http://GaleNUx.com", "divipola": "73168", "fixme": "Revisar: este punto fue creado por importaci\u00f3n directa", "is_in": "Colombia; Tolima ; Chaparral", "name": "Potrerito Lugo", "note": "GEOPUNTO, PUNTO DE INTERES, 211df8700d220732efa5fa248454239c", "place": "locality", "source": "OCHA Colombia 2010"}}, {"type": "node", "id": 703219904, "lat": 3.8276568, "lon": -75.576764, "tags": {"comment": "convertido a OSM usando http://GaleNUx.com", "divipola": "73168", "fixme": "Revisar: este punto fue creado por importaci\u00f3n directa", "is_in": "Colombia; Tolima ; Chaparral", "name": "Luxemburgo", "note": "GEOPUNTO, PUNTO DE INTERES, 48d2817f6877ce157e08f3e980d9c045", "place": "locality", "source": "OCHA Colombia 2010"}}, {"type": "node", "id": 703219907, "lat": 3.8054172, "lon": -75.4579167, "tags": {"comment": "convertido a OSM usando http://GaleNUx.com", "divipola": "73168", "fixme": "Revisar: este punto fue creado por importaci\u00f3n directa", "is_in": "Colombia; Tolima ; Chaparral", "name": "Brazuela", "note": "GEOPUNTO, PUNTO DE INTERES, d243ff82cf0cf5ce2c595c9ba90f963a", "place": "locality", "source": "OCHA Colombia 2010"}}, {"type": "node", "id": 703219908, "lat": 3.8055589, "lon": -75.448001, "tags": {"comment": "convertido a OSM usando http://GaleNUx.com", "divipola": "73168", "fixme": "Revisar: este punto fue creado por importaci\u00f3n directa", "is_in": "Colombia; Tolima ; Chaparral", "name": "Calarma", "note": "GEOPUNTO, PUNTO DE INTERES, ea92a0be79934b8ffd92ed931ba69e90", "place": "locality", "source": "OCHA Colombia 2010"}}, {"type": "node", "id": 703219912, "lat": 3.8046255, "lon": -75.4223582, "tags": {"comment": "convertido a OSM usando http://GaleNUx.com", "divipola": "73168", "fixme": "Revisar: este punto fue creado por importaci\u00f3n directa", "is_in": "Colombia; Tolima ; Chaparral", "name": "Calarma", "note": "GEOPUNTO, PUNTO DE INTERES, e926a20a506b7519cd9e3a8597729844", "place": "locality", "source": "OCHA Colombia 2010"}}, {"type": "node", "id": 703219958, "lat": 3.8415534, "lon": -75.4903478, "tags": {"comment": "convertido a OSM usando http://GaleNUx.com", "divipola": "73168", "fixme": "Revisar: este punto fue creado por importaci\u00f3n directa", "is_in": "Colombia; Tolima ; Chaparral", "name": "El Cural", "note": "GEOPUNTO, PUNTO DE INTERES, 60ccde66cddc109653af9c8510e8409a", "place": "locality", "source": "OCHA Colombia 2010"}}, {"type": "node", "id": 703219959, "lat": 3.8302853, "lon": -75.4163584, "tags": {"comment": "convertido a OSM usando http://GaleNUx.com", "divipola": "73168", "fixme": "Revisar: este punto fue creado por importaci\u00f3n directa", "is_in": "Colombia; Tolima ; Chaparral", "name": "Miramar", "note": "GEOPUNTO, PUNTO DE INTERES, 77ffc8c668dc12e66b68431bdf0df219", "place": "locality", "source": "OCHA Colombia 2010"}}, {"type": "node", "id": 703219961, "lat": 3.8419607, "lon": -75.4904836, "tags": {"comment": "convertido a OSM usando http://GaleNUx.com", "divipola": "73168", "fixme": "Revisar: este punto fue creado por importaci\u00f3n directa", "is_in": "Colombia; Tolima ; Chaparral", "name": "El Curo", "note": "GEOPUNTO, PUNTO DE INTERES, 7183add71923657c7d59c76ea4d4285e", "place": "locality", "source": "OCHA Colombia 2010"}}, {"type": "node", "id": 703219963, "lat": 3.7225499, "lon": -75.3385029, "tags": {"comment": "convertido a OSM usando http://GaleNUx.com", "divipola": "73168", "fixme": "Revisar: este punto fue creado por importaci\u00f3n directa", "is_in": "Colombia; Tolima ; Chaparral", "name": "La Venta", "note": "GEOPUNTO, PUNTO DE INTERES, ecce3b657ae91b25126d4289b4d3a12b", "place": "locality", "source": "OCHA Colombia 2010"}}, {"type": "node", "id": 703219964, "lat": 3.7207084, "lon": -75.3232043, "tags": {"comment": "convertido a OSM usando http://GaleNUx.com", "divipola": "73168", "fixme": "Revisar: este punto fue creado por importaci\u00f3n directa", "is_in": "Colombia; Tolima ; Chaparral", "name": "La Vega", "note": "GEOPUNTO, PUNTO DE INTERES, 9ae45017b58feecd7382f68282f01e85", "place": "locality", "source": "OCHA Colombia 2010"}}, {"type": "node", "id": 703219966, "lat": 3.7120676, "lon": -75.3200879, "tags": {"comment": "convertido a OSM usando http://GaleNUx.com", "divipola": "73168", "fixme": "Revisar: este punto fue creado por importaci\u00f3n directa", "is_in": "Colombia; Tolima ; Chaparral", "name": "La Victoria", "note": "GEOPUNTO, PUNTO DE INTERES, 880d29cb824e3827b3fc886df1d855a7", "place": "locality", "source": "OCHA Colombia 2010"}}, {"type": "node", "id": 703219967, "lat": 3.7066847, "lon": -75.3037978, "tags": {"comment": "convertido a OSM usando http://GaleNUx.com", "divipola": "73168", "fixme": "Revisar: este punto fue creado por importaci\u00f3n directa", "is_in": "Colombia; Tolima ; Chaparral", "name": "Tamareo", "note": "GEOPUNTO, PUNTO DE INTERES, 2230fc320483e75d235878f5fed0a6e2", "place": "locality", "source": "OCHA Colombia 2010"}}, {"type": "node", "id": 703219968, "lat": 3.7129175, "lon": -75.3824154, "tags": {"comment": "convertido a OSM usando http://GaleNUx.com", "divipola": "73168", "fixme": "Revisar: este punto fue creado por importaci\u00f3n directa", "is_in": "Colombia; Tolima ; Chaparral", "name": "Pipini", "note": "GEOPUNTO, PUNTO DE INTERES, d7535b381c39f01401053298da5c7c93", "place": "locality", "source": "OCHA Colombia 2010"}}, {"type": "node", "id": 703219969, "lat": 3.7107927, "lon": -75.3674002, "tags": {"comment": "convertido a OSM usando http://GaleNUx.com", "divipola": "73168", "fixme": "Revisar: este punto fue creado por importaci\u00f3n directa", "is_in": "Colombia; Tolima ; Chaparral", "name": "San Jose", "note": "GEOPUNTO, PUNTO DE INTERES, e821bb6ee77ffa074c4320911b9d0170", "place": "locality", "source": "OCHA Colombia 2010"}}, {"type": "node", "id": 703219970, "lat": 3.7338822, "lon": -75.3433191, "tags": {"comment": "convertido a OSM usando http://GaleNUx.com", "divipola": "73168", "fixme": "Revisar: este punto fue creado por importaci\u00f3n directa", "is_in": "Colombia; Tolima ; Chaparral", "name": "El Saman", "note": "GEOPUNTO, PUNTO DE INTERES, a8b7d4acfd9f16177bc4c564a2408ff5", "place": "locality", "source": "OCHA Colombia 2010"}}, {"type": "node", "id": 703219973, "lat": 3.7313324, "lon": -75.3264623, "tags": {"comment": "convertido a OSM usando http://GaleNUx.com", "divipola": "73168", "fixme": "Revisar: este punto fue creado por importaci\u00f3n directa", "is_in": "Colombia; Tolima ; Chaparral", "name": "El Porvenir", "note": "GEOPUNTO, PUNTO DE INTERES, ec4695ca4ef2ae59b39a0345473cd63c", "place": "locality", "source": "OCHA Colombia 2010"}}, {"type": "node", "id": 703219976, "lat": 3.7491808, "lon": -75.404655, "tags": {"comment": "convertido a OSM usando http://GaleNUx.com", "divipola": "73168", "fixme": "Revisar: este punto fue creado por importaci\u00f3n directa", "is_in": "Colombia; Tolima ; Chaparral", "name": "Paujil", "note": "GEOPUNTO, PUNTO DE INTERES, 9f2d5ab83f655da01c98ba7dd3c6161b", "place": "locality", "source": "OCHA Colombia 2010"}}, {"type": "node", "id": 703219977, "lat": 3.7341655, "lon": -75.3971474, "tags": {"comment": "convertido a OSM usando http://GaleNUx.com", "divipola": "73168", "fixme": "Revisar: este punto fue creado por importaci\u00f3n directa", "is_in": "Colombia; Tolima ; Chaparral", "name": "Mosquitos", "note": "GEOPUNTO, PUNTO DE INTERES, a3b2d1421abd4368af01369b143d4951", "place": "locality", "source": "OCHA Colombia 2010"}}, {"type": "node", "id": 703219978, "lat": 3.725383, "lon": -75.3791574, "tags": {"comment": "convertido a OSM usando http://GaleNUx.com", "divipola": "73168", "fixme": "Revisar: este punto fue creado por importaci\u00f3n directa", "is_in": "Colombia; Tolima ; Chaparral", "name": "Capellania", "note": "GEOPUNTO, PUNTO DE INTERES, 5c4261188b505ed13f70004c10ad5391", "place": "locality", "source": "OCHA Colombia 2010"}}, {"type": "node", "id": 703219985, "lat": 3.7865773, "lon": -75.3383612, "tags": {"comment": "convertido a OSM usando http://GaleNUx.com", "divipola": "73168", "fixme": "Revisar: este punto fue creado por importaci\u00f3n directa", "is_in": "Colombia; Tolima ; Chaparral", "name": "Yaguaral", "note": "GEOPUNTO, PUNTO DE INTERES, cd95211f7f7e11f2324ab3ec826be516", "place": "locality", "source": "OCHA Colombia 2010"}}, {"type": "node", "id": 703219996, "lat": 3.853093, "lon": -75.4035969, "tags": {"comment": "convertido a OSM usando http://GaleNUx.com", "divipola": "73168", "fixme": "Revisar: este punto fue creado por importaci\u00f3n directa", "is_in": "Colombia; Tolima ; Chaparral", "name": "Vistahermosa", "note": "GEOPUNTO, PUNTO DE INTERES, 23920ac6727cf7979cafa7cd61112305", "place": "locality", "source": "OCHA Colombia 2010"}}, {"type": "node", "id": 703219997, "lat": 3.8300137, "lon": -75.4016962, "tags": {"comment": "convertido a OSM usando http://GaleNUx.com", "divipola": "73168", "fixme": "Revisar: este punto fue creado por importaci\u00f3n directa", "is_in": "Colombia; Tolima ; Chaparral", "name": "La Aguada", "note": "GEOPUNTO, PUNTO DE INTERES, e3b2e1606e0d3f70bfa5b8d4df2254ca", "place": "locality", "source": "OCHA Colombia 2010"}}, {"type": "node", "id": 703219998, "lat": 3.7959755, "lon": -75.378161, "tags": {"comment": "convertido a OSM usando http://GaleNUx.com", "divipola": "73168", "fixme": "Revisar: este punto fue creado por importaci\u00f3n directa", "is_in": "Colombia; Tolima ; Chaparral", "name": "Lemaya", "note": "GEOPUNTO, PUNTO DE INTERES, 9b5003ff663121a1ea56d82d7cb71eec", "place": "locality", "source": "OCHA Colombia 2010"}}, {"type": "node", "id": 703220003, "lat": 3.8945, "lon": -75.7880706, "tags": {"comment": "convertido a OSM usando http://GaleNUx.com", "divipola": "73168", "fixme": "Revisar: este punto fue creado por importaci\u00f3n directa", "is_in": "Colombia; Tolima ; Chaparral", "name": "Los Planes", "note": "GEOPUNTO, PUNTO DE INTERES, 306973337557484db45a1e96e6a22894", "place": "locality", "source": "OCHA Colombia 2010"}}, {"type": "node", "id": 703220004, "lat": 3.8955861, "lon": -75.7668919, "tags": {"comment": "convertido a OSM usando http://GaleNUx.com", "divipola": "73168", "fixme": "Revisar: este punto fue creado por importaci\u00f3n directa", "is_in": "Colombia; Tolima ; Chaparral", "name": "Los Pinos", "note": "GEOPUNTO, PUNTO DE INTERES, 03ad27de881f5d7f359e3c187d2a1b77", "place": "locality", "source": "OCHA Colombia 2010"}}, {"type": "node", "id": 703220005, "lat": 3.9106555, "lon": -75.7719151, "tags": {"comment": "convertido a OSM usando http://GaleNUx.com", "divipola": "73168", "fixme": "Revisar: este punto fue creado por importaci\u00f3n directa", "is_in": "Colombia; Tolima ; Chaparral", "name": "La Florida", "note": "GEOPUNTO, PUNTO DE INTERES, 7d77f6c96fe2984300472393f64eefc9", "place": "locality", "source": "OCHA Colombia 2010"}}, {"type": "node", "id": 703220006, "lat": 3.9255891, "lon": -75.7985241, "tags": {"comment": "convertido a OSM usando http://GaleNUx.com", "divipola": "73168", "fixme": "Revisar: este punto fue creado por importaci\u00f3n directa", "is_in": "Colombia; Tolima ; Chaparral", "name": "El Mirador", "note": "GEOPUNTO, PUNTO DE INTERES, e8b9466e276298cff5a26c841110619e", "place": "locality", "source": "OCHA Colombia 2010"}}, {"type": "node", "id": 703220008, "lat": 3.8829603, "lon": -75.8287987, "tags": {"comment": "convertido a OSM usando http://GaleNUx.com", "divipola": "73168", "fixme": "Revisar: este punto fue creado por importaci\u00f3n directa", "is_in": "Colombia; Tolima ; Chaparral", "name": "El Diamante", "note": "GEOPUNTO, PUNTO DE INTERES, 4c6c0b84d7ac434020428d74c7e2fcb8", "place": "locality", "source": "OCHA Colombia 2010"}}, {"type": "node", "id": 703220010, "lat": 3.891649, "lon": -75.826898, "tags": {"comment": "convertido a OSM usando http://GaleNUx.com", "divipola": "73168", "fixme": "Revisar: este punto fue creado por importaci\u00f3n directa", "is_in": "Colombia; Tolima ; Chaparral", "name": "Gigante", "note": "GEOPUNTO, PUNTO DE INTERES, 96787cd8d31d82d0ff2c27aaee71a497", "place": "locality", "source": "OCHA Colombia 2010"}}, {"type": "node", "id": 703220011, "lat": 3.8863543, "lon": -75.7856269, "tags": {"comment": "convertido a OSM usando http://GaleNUx.com", "divipola": "73168", "fixme": "Revisar: este punto fue creado por importaci\u00f3n directa", "is_in": "Colombia; Tolima ; Chaparral", "name": "Bolivia", "note": "GEOPUNTO, PUNTO DE INTERES, f6bc4b44b3fa64087aee5b362473d602", "place": "locality", "source": "OCHA Colombia 2010"}}, {"type": "node", "id": 703220016, "lat": 3.9345493, "lon": -75.7705575, "tags": {"comment": "convertido a OSM usando http://GaleNUx.com", "divipola": "73168", "fixme": "Revisar: este punto fue creado por importaci\u00f3n directa", "is_in": "Colombia; Tolima ; Chaparral", "name": "Santa Fe", "note": "GEOPUNTO, PUNTO DE INTERES, 55ce89ab0af3122881d6c6a3e15f89ac", "place": "locality", "source": "OCHA Colombia 2010"}}, {"type": "node", "id": 703220017, "lat": 3.9169004, "lon": -75.7647197, "tags": {"comment": "convertido a OSM usando http://GaleNUx.com", "divipola": "73168", "fixme": "Revisar: este punto fue creado por importaci\u00f3n directa", "is_in": "Colombia; Tolima ; Chaparral", "name": "Balcones", "note": "GEOPUNTO, PUNTO DE INTERES, b7d9fc0eddbabab2c639dedcd5cc7b29", "place": "locality", "source": "OCHA Colombia 2010"}}, {"type": "node", "id": 703220018, "lat": 3.9213805, "lon": -75.7765309, "tags": {"comment": "convertido a OSM usando http://GaleNUx.com", "divipola": "73168", "fixme": "Revisar: este punto fue creado por importaci\u00f3n directa", "is_in": "Colombia; Tolima ; Chaparral", "name": "Santa Cecilia", "note": "GEOPUNTO, PUNTO DE INTERES, 673ea5c9acbc9571c5c99e197e63b71e", "place": "locality", "source": "OCHA Colombia 2010"}}, {"type": "node", "id": 703220022, "lat": 3.8883907, "lon": -75.6981971, "tags": {"comment": "convertido a OSM usando http://GaleNUx.com", "divipola": "73168", "fixme": "Revisar: este punto fue creado por importaci\u00f3n directa", "is_in": "Colombia; Tolima ; Chaparral", "name": "Satena", "note": "GEOPUNTO, PUNTO DE INTERES, 5de90170840f13db33e872d5e6d39875", "place": "locality", "source": "OCHA Colombia 2010"}}, {"type": "node", "id": 703220023, "lat": 3.8966721, "lon": -75.6774258, "tags": {"comment": "convertido a OSM usando http://GaleNUx.com", "divipola": "73168", "fixme": "Revisar: este punto fue creado por importaci\u00f3n directa", "is_in": "Colombia; Tolima ; Chaparral", "name": "Mameyal", "note": "GEOPUNTO, PUNTO DE INTERES, 2b0c393f1614e0da3305d95e25a7815a", "place": "locality", "source": "OCHA Colombia 2010"}}, {"type": "node", "id": 703220025, "lat": 3.9061213, "lon": -75.7046797, "tags": {"comment": "convertido a OSM usando http://GaleNUx.com", "divipola": "73168", "fixme": "Revisar: este punto fue creado por importaci\u00f3n directa", "is_in": "Colombia; Tolima ; Chaparral", "name": "La Linda", "note": "GEOPUNTO, PUNTO DE INTERES, c50433fcba03ad14ba3d580fef1c2335", "place": "isolated_dwelling", "source": "OCHA Colombia 2010"}}, {"type": "node", "id": 703220028, "lat": 3.9160859, "lon": -75.6823131, "tags": {"comment": "convertido a OSM usando http://GaleNUx.com", "divipola": "73168", "fixme": "Revisar: este punto fue creado por importaci\u00f3n directa", "is_in": "Colombia; Tolima ; Chaparral", "name": "Versalles", "note": "GEOPUNTO, PUNTO DE INTERES, f1c271104b86b530bff868ea124bf8b7", "place": "locality", "source": "OCHA Colombia 2010"}}, {"type": "node", "id": 703220029, "lat": 3.9229241, "lon": -75.7154594, "tags": {"comment": "convertido a OSM usando http://GaleNUx.com", "divipola": "73168", "fixme": "Revisar: este punto fue creado por importaci\u00f3n directa", "is_in": "Colombia; Tolima ; Chaparral", "name": "Alemania", "note": "GEOPUNTO, PUNTO DE INTERES, ec1e75c359c8b8f4af9d199cd42ec6a8", "place": "isolated_dwelling", "source": "OCHA Colombia 2010"}}, {"type": "node", "id": 703220030, "lat": 3.9284401, "lon": -75.7564384, "tags": {"comment": "convertido a OSM usando http://GaleNUx.com", "divipola": "73168", "fixme": "Revisar: este punto fue creado por importaci\u00f3n directa", "is_in": "Colombia; Tolima ; Chaparral", "name": "Santa Clara", "note": "GEOPUNTO, PUNTO DE INTERES, b7a456704a283f0a7f902dcf794395ae", "place": "isolated_dwelling", "source": "OCHA Colombia 2010"}}, {"type": "node", "id": 703220031, "lat": 3.9338705, "lon": -75.7613257, "tags": {"comment": "convertido a OSM usando http://GaleNUx.com", "divipola": "73168", "fixme": "Revisar: este punto fue creado por importaci\u00f3n directa", "is_in": "Colombia; Tolima ; Chaparral", "name": "Vagones", "note": "GEOPUNTO, PUNTO DE INTERES, ed33ec7e468ad76c7597498b126502d7", "place": "locality", "source": "OCHA Colombia 2010"}}, {"type": "node", "id": 703220032, "lat": 3.9440893, "lon": -75.7582143, "tags": {"comment": "convertido a OSM usando http://GaleNUx.com", "divipola": "73168", "fixme": "Revisar: este punto fue creado por importaci\u00f3n directa", "is_in": "Colombia; Tolima ; Chaparral", "name": "Alemania", "note": "ADMINISTRATIVO, VEREDA, 2e0604815338a00d88515d81980aec98", "place": "hamlet", "source": "OCHA Colombia 2010"}}, {"type": "node", "id": 703220033, "lat": 3.9048064, "lon": -75.6958993, "tags": {"comment": "convertido a OSM usando http://GaleNUx.com", "divipola": "73168007", "name": "San Jos\u00e9 de Las Hermosas", "place": "village", "source": "OCHA Colombia 2010"}}, {"type": "node", "id": 703220034, "lat": 3.90949, "lon": -75.6658445, "tags": {"comment": "convertido a OSM usando http://GaleNUx.com", "divipola": "73168", "fixme": "Revisar: este punto fue creado por importaci\u00f3n directa", "is_in": "Colombia; Tolima ; Chaparral", "name": "El Cairo", "note": "ADMINISTRATIVO, VEREDA, 496611846b376f95d7b7828487fdaa8c", "place": "hamlet", "source": "OCHA Colombia 2010"}}, {"type": "node", "id": 703220035, "lat": 3.8744074, "lon": -75.6482373, "tags": {"comment": "convertido a OSM usando http://GaleNUx.com", "divipola": "73168", "fixme": "Revisar: este punto fue creado por importaci\u00f3n directa", "is_in": "Colombia; Tolima ; Chaparral", "name": "El Rocio", "note": "GEOPUNTO, PUNTO DE INTERES, 899c9d4aee9b46b78332b4e57043c4db", "place": "locality", "source": "OCHA Colombia 2010"}}, {"type": "node", "id": 703220036, "lat": 3.8794306, "lon": -75.6487803, "tags": {"comment": "convertido a OSM usando http://GaleNUx.com", "divipola": "73168", "fixme": "Revisar: este punto fue creado por importaci\u00f3n directa", "is_in": "Colombia; Tolima ; Chaparral", "name": "Normandia", "note": "GEOPUNTO, PUNTO DE INTERES, 7fa94ba17c474b7a1c6584f571129e45", "place": "locality", "source": "OCHA Colombia 2010"}}, {"type": "node", "id": 703220037, "lat": 3.8741359, "lon": -75.6123965, "tags": {"comment": "convertido a OSM usando http://GaleNUx.com", "divipola": "73168", "fixme": "Revisar: este punto fue creado por importaci\u00f3n directa", "is_in": "Colombia; Tolima ; Chaparral", "name": "El Mirador (1)", "note": "GEOPUNTO, PUNTO DE INTERES, 352ff2b78f8a8fd18203bc46817d0bcd", "place": "locality", "source": "OCHA Colombia 2010"}}, {"type": "node", "id": 703220043, "lat": 3.8750862, "lon": -75.6246149, "tags": {"comment": "convertido a OSM usando http://GaleNUx.com", "divipola": "73168", "fixme": "Revisar: este punto fue creado por importaci\u00f3n directa", "is_in": "Colombia; Tolima ; Chaparral", "name": "El Jordan", "note": "GEOPUNTO, PUNTO DE INTERES, bf4ae76ca5b7b4a28a3bbe3e022153a8", "place": "locality", "source": "OCHA Colombia 2010"}}, {"type": "node", "id": 703220045, "lat": 3.8841822, "lon": -75.5932543, "tags": {"comment": "convertido a OSM usando http://GaleNUx.com", "divipola": "73168", "fixme": "Revisar: este punto fue creado por importaci\u00f3n directa", "is_in": "Colombia; Tolima ; Chaparral", "name": "Pe\u00f1aranda", "note": "GEOPUNTO, PUNTO DE INTERES, bee98513791209512a3430e59324ca08", "place": "locality", "source": "OCHA Colombia 2010"}}, {"type": "node", "id": 703220046, "lat": 3.8847252, "lon": -75.6652073, "tags": {"comment": "convertido a OSM usando http://GaleNUx.com", "divipola": "73168", "fixme": "Revisar: este punto fue creado por importaci\u00f3n directa", "is_in": "Colombia; Tolima ; Chaparral", "name": "La Estacion", "note": "GEOPUNTO, PUNTO DE INTERES, 7df88f7f693dc37870b6e2bf8f78ae91", "place": "locality", "source": "OCHA Colombia 2010"}}, {"type": "node", "id": 703220047, "lat": 3.8771226, "lon": -75.6641212, "tags": {"comment": "convertido a OSM usando http://GaleNUx.com", "divipola": "73168", "fixme": "Revisar: este punto fue creado por importaci\u00f3n directa", "is_in": "Colombia; Tolima ; Chaparral", "name": "El Placer", "note": "GEOPUNTO, PUNTO DE INTERES, 63e3736bfb27f6b3adac8cf8f9fa4a58", "place": "locality", "source": "OCHA Colombia 2010"}}, {"type": "node", "id": 703220049, "lat": 3.8765248, "lon": -75.5976201, "tags": {"comment": "convertido a OSM usando http://GaleNUx.com", "divipola": "73168", "fixme": "Revisar: este punto fue creado por importaci\u00f3n directa", "is_in": "Colombia; Tolima ; Chaparral", "name": "San Jorge - Alto", "note": "ADMINISTRATIVO, VEREDA, abfb8f896a3ee2a1a7ee3ad40d44d817", "place": "hamlet", "source": "OCHA Colombia 2010"}}, {"type": "node", "id": 703220050, "lat": 3.8713388, "lon": -75.6390896, "tags": {"comment": "convertido a OSM usando http://GaleNUx.com", "divipola": "73168", "fixme": "Revisar: este punto fue creado por importaci\u00f3n directa", "is_in": "Colombia; Tolima ; Chaparral", "name": "Rionegro Hermosas", "note": "ADMINISTRATIVO, VEREDA, d4e2b0abc2cb83ee8ee17a2e2b88a104", "place": "hamlet", "source": "OCHA Colombia 2010"}}, {"type": "node", "id": 703220052, "lat": 3.9633305, "lon": -75.712995, "tags": {"comment": "convertido a OSM usando http://GaleNUx.com", "divipola": "73168", "fixme": "Revisar: este punto fue creado por importaci\u00f3n directa", "is_in": "Colombia; Tolima ; Chaparral", "name": "Boqueron Miraflores", "note": "GEOPUNTO, PUNTO DE INTERES, a2f27ebaef8e0343d243b00694e90a21", "place": "locality", "source": "OCHA Colombia 2010"}}, {"type": "node", "id": 703220055, "lat": 4.0252857, "lon": -75.741392, "tags": {"comment": "convertido a OSM usando http://GaleNUx.com", "divipola": "73168", "fixme": "Revisar: este punto fue creado por importaci\u00f3n directa", "is_in": "Colombia; Tolima ; Chaparral", "name": "Paramo De Cumbarco", "note": "OROGRAFIA, PARAMOS, 83d909aabe06e8e27e0a810df6ef71f3", "place": "locality", "source": "OCHA Colombia 2010"}}, {"type": "node", "id": 3422055858, "lat": 3.5388887, "lon": -75.4173366, "tags": {"name": "La Charca", "place": "isolated_dwelling"}}, {"type": "node", "id": 3744298476, "lat": 3.74445, "lon": -75.3852601, "tags": {"name": "La Primavera", "place": "isolated_dwelling"}}, {"type": "node", "id": 3755941234, "lat": 3.530644, "lon": -75.4287004, "tags": {"name": "Llano Largo", "place": "isolated_dwelling"}}, {"type": "node", "id": 4065266022, "lat": 3.8307446, "lon": -75.6083153, "tags": {"name": "Vivienda", "place": "isolated_dwelling"}}, {"type": "node", "id": 4065266023, "lat": 3.8332405, "lon": -75.6115508, "tags": {"name": "Vivienda", "place": "isolated_dwelling"}}, {"type": "node", "id": 4141100636, "lat": 3.6721238, "lon": -75.5792733, "tags": {"name": "El Eden", "place": "isolated_dwelling"}}, {"type": "node", "id": 4141100637, "lat": 3.66775, "lon": -75.5783801, "tags": {"name": "Porvenir", "place": "isolated_dwelling"}}, {"type": "node", "id": 4736860533, "lat": 3.6709861, "lon": -75.4616297}, {"type": "node", "id": 4736860535, "lat": 3.6710259, "lon": -75.4615387}, {"type": "node", "id": 4736860539, "lat": 3.6711496, "lon": -75.4617016}, {"type": "node", "id": 4736860540, "lat": 3.6711894, "lon": -75.4616106}, {"type": "node", "id": 4777819487, "lat": 3.5564724, "lon": -75.5084392, "tags": {"name": "La L\u00ednea", "place": "hamlet"}}, {"type": "node", "id": 5462754272, "lat": 3.7210982, "lon": -75.4757272}, {"type": "node", "id": 5462754273, "lat": 3.7212738, "lon": -75.4743658}, {"type": "node", "id": 5462754274, "lat": 3.7199491, "lon": -75.4742167}, {"type": "node", "id": 5462754275, "lat": 3.7198876, "lon": -75.4754508}, {"type": "node", "id": 5462779370, "lat": 3.7207659, "lon": -75.4746948, "tags": {"name": "Plaza de Toros La Sombrerera", "place": "square"}}, {"type": "node", "id": 5520539127, "lat": 3.7200316, "lon": -75.4756269}, {"type": "node", "id": 5520539128, "lat": 3.7199386, "lon": -75.4755389}, {"type": "node", "id": 5550567479, "lat": 3.7713893, "lon": -75.3576092, "tags": {"name": "Los Mangos", "place": "locality"}}, {"type": "node", "id": 5744502514, "lat": 3.7204225, "lon": -75.4747118}, {"type": "node", "id": 5744502515, "lat": 3.7204494, "lon": -75.4748233}, {"type": "node", "id": 5744502516, "lat": 3.7205119, "lon": -75.4749193}, {"type": "node", "id": 5744502517, "lat": 3.7206029, "lon": -75.4749889}, {"type": "node", "id": 5744502518, "lat": 3.7207117, "lon": -75.4750242}, {"type": "node", "id": 5744502519, "lat": 3.7208261, "lon": -75.475021}, {"type": "node", "id": 5744502520, "lat": 3.7209329, "lon": -75.4749797}, {"type": "node", "id": 5744503521, "lat": 3.7210197, "lon": -75.4749051}, {"type": "node", "id": 5744503522, "lat": 3.7210768, "lon": -75.4748057}, {"type": "node", "id": 5744503523, "lat": 3.7210975, "lon": -75.4746929}, {"type": "node", "id": 5744503524, "lat": 3.7210794, "lon": -75.4745797}, {"type": "node", "id": 5744503525, "lat": 3.7210353, "lon": -75.4744931}, {"type": "node", "id": 5744503526, "lat": 3.7209684, "lon": -75.4744227}, {"type": "node", "id": 5744503527, "lat": 3.7208843, "lon": -75.4743743}, {"type": "node", "id": 5744503528, "lat": 3.72079, "lon": -75.4743517}, {"type": "node", "id": 5744503529, "lat": 3.7206017, "lon": -75.4743896}, {"type": "node", "id": 5744503530, "lat": 3.7205234, "lon": -75.4744469}, {"type": "node", "id": 5744503531, "lat": 3.7204645, "lon": -75.4745241}, {"type": "node", "id": 5744503532, "lat": 3.7204299, "lon": -75.4746149}, {"type": "node", "id": 5744503533, "lat": 3.7206931, "lon": -75.4743572}, {"type": "node", "id": 5811417888, "lat": 3.6608944, "lon": -75.4479325, "tags": {"name": "El Queso", "place": "locality"}}, {"type": "node", "id": 6181803438, "lat": 3.8556447, "lon": -75.6288404, "tags": {"name": "Paradero Rio Negro", "place": "locality"}}, {"type": "node", "id": 6181803439, "lat": 3.8558747, "lon": -75.6190446, "tags": {"name": "Paradero La Argentina", "place": "locality"}}, {"type": "node", "id": 6181803440, "lat": 3.8569608, "lon": -75.6337044, "tags": {"name": "La Arenosa", "place": "locality"}}, {"type": "node", "id": 6911091541, "lat": 3.649458, "lon": -75.5847828, "tags": {"comment": "convertido a OSM usando http://GaleNUx.com", "divipola": "73168004", "name": "El Lim\u00f3n", "place": "village", "source": "OCHA Colombia 2010"}}, {"type": "node", "id": 6911091542, "lat": 3.7279334, "lon": -75.6403971, "tags": {"comment": "convertido a OSM usando http://GaleNUx.com", "divipola": "73168005", "name": "La Marina", "place": "village", "source": "OCHA Colombia 2010"}}, {"type": "node", "id": 7324023041, "lat": 3.7208929, "lon": -75.474902}, {"type": "node", "id": 7324023042, "lat": 3.7209565, "lon": -75.4748495}, {"type": "node", "id": 7324023043, "lat": 3.720999, "lon": -75.4747788}, {"type": "node", "id": 7324023044, "lat": 3.7210154, "lon": -75.4746979}, {"type": "node", "id": 7324023045, "lat": 3.721004, "lon": -75.4746161}, {"type": "node", "id": 7324023046, "lat": 3.7207483, "lon": -75.4744473}, {"type": "node", "id": 7324023047, "lat": 3.7206724, "lon": -75.4744675}, {"type": "node", "id": 7324023048, "lat": 3.7206069, "lon": -75.4745109}, {"type": "node", "id": 7324023049, "lat": 3.7205585, "lon": -75.4745729}, {"type": "node", "id": 7324023050, "lat": 3.7205324, "lon": -75.4746472}, {"type": "node", "id": 7324023051, "lat": 3.7205311, "lon": -75.4747259}, {"type": "node", "id": 7324023052, "lat": 3.7209661, "lon": -75.4745428}, {"type": "node", "id": 7324023053, "lat": 3.720906, "lon": -75.4744864}, {"type": "node", "id": 7324023054, "lat": 3.7208305, "lon": -75.4744533}, {"type": "node", "id": 7324023055, "lat": 3.720555, "lon": -75.4748008}, {"type": "node", "id": 7324023056, "lat": 3.7206014, "lon": -75.4748643}, {"type": "node", "id": 7324023057, "lat": 3.7206656, "lon": -75.4749097}, {"type": "node", "id": 7324023058, "lat": 3.7207409, "lon": -75.4749322}, {"type": "node", "id": 7324023059, "lat": 3.7208194, "lon": -75.4749296}, {"type": "node", "id": 7330255057, "lat": 3.7234259, "lon": -75.4635093, "tags": {"name": "SANTA HELENA", "place": "village"}}, {"type": "node", "id": 7330255058, "lat": 3.7217843, "lon": -75.4633422, "tags": {"name": "SANTOFIMIO", "place": "village"}}, {"type": "node", "id": 7330255059, "lat": 3.7280177, "lon": -75.4606891, "tags": {"name": "EL JARDIN", "place": "village"}}, {"type": "node", "id": 7330255060, "lat": 3.7268954, "lon": -75.4684645, "tags": {"name": "SALOMON UMA\u00d1A", "place": "village"}}, {"type": "node", "id": 7330255061, "lat": 3.7249494, "lon": -75.4678876, "tags": {"name": "FUNDADORES", "place": "village"}}, {"type": "node", "id": 7330255063, "lat": 3.7235235, "lon": -75.4721984, "tags": {"name": "VILLA ESPERANZA", "place": "village"}}, {"type": "node", "id": 7330255065, "lat": 3.7196134, "lon": -75.4727613, "tags": {"name": "CARMENZA ROCHA", "place": "village"}}, {"type": "node", "id": 7330255066, "lat": 3.7180767, "lon": -75.4779344, "tags": {"name": "TULUNI", "place": "village"}}, {"type": "node", "id": 7330255067, "lat": 3.7196359, "lon": -75.4786444, "tags": {"name": "VILLA DEL TRIUNFO", "place": "village"}}, {"type": "node", "id": 7330255068, "lat": 3.7203911, "lon": -75.4790693, "tags": {"name": "CASTA\u00d1AL", "place": "village"}}, {"type": "node", "id": 7330255069, "lat": 3.7206859, "lon": -75.4765396, "tags": {"name": "CARMENZA ROCHA", "place": "village"}}, {"type": "node", "id": 7330255070, "lat": 3.7257968, "lon": -75.4749266, "tags": {"name": "PRIMAVERA", "place": "village"}}, {"type": "node", "id": 7330255071, "lat": 3.7278829, "lon": -75.4738651, "tags": {"name": "AMERICAS", "place": "village"}}, {"type": "node", "id": 7330255073, "lat": 3.723905, "lon": -75.4790188, "tags": {"name": "PRIMERO DE MAYO", "place": "village"}}, {"type": "node", "id": 7330255074, "lat": 3.7260692, "lon": -75.4777944, "tags": {"name": "OBRERO", "place": "village"}}, {"type": "node", "id": 7330255075, "lat": 3.7259084, "lon": -75.4816202, "tags": {"name": "VERSALLES", "place": "village"}}, {"type": "node", "id": 7330255076, "lat": 3.7264418, "lon": -75.4837444, "tags": {"name": "JUAN BAUTISTA", "place": "village"}}, {"type": "node", "id": 7330255077, "lat": 3.7233223, "lon": -75.4839525, "tags": {"name": "DIVINO NI\u00d1O", "place": "village"}}, {"type": "node", "id": 7330255078, "lat": 3.7215158, "lon": -75.4855195, "tags": {"name": "LA LOMA", "place": "village"}}, {"type": "node", "id": 7330255079, "lat": 3.7241704, "lon": -75.4856738, "tags": {"name": "CENTRO", "place": "village"}}, {"type": "node", "id": 7330255080, "lat": 3.7228096, "lon": -75.4884237, "tags": {"name": "LIBERTADOR", "place": "village"}}, {"type": "node", "id": 7330255081, "lat": 3.7202172, "lon": -75.4886848, "tags": {"name": "SANTA LUISA", "place": "neighbourhood"}}, {"type": "node", "id": 7330255082, "lat": 3.7176435, "lon": -75.4892048, "tags": {"name": "AMBEIMA", "place": "village"}}, {"type": "node", "id": 7330255083, "lat": 3.7175266, "lon": -75.4904005, "tags": {"name": "CABA\u00d1AS", "place": "village"}}, {"type": "node", "id": 7330255084, "lat": 3.7164016, "lon": -75.4945661, "tags": {"name": "PRADOS DEL EDEN", "place": "village"}}, {"type": "node", "id": 7330263185, "lat": 3.7183859, "lon": -75.4939602, "tags": {"name": "EL EDEN", "place": "village"}}, {"type": "node", "id": 7330263186, "lat": 3.7196248, "lon": -75.4983506, "tags": {"name": "VILLA CAFE", "place": "village"}}, {"type": "node", "id": 7330263187, "lat": 3.7216758, "lon": -75.4975104, "tags": {"name": "BELTRAN", "place": "village"}}, {"type": "node", "id": 7330263188, "lat": 3.7211287, "lon": -75.4922968, "tags": {"name": "LAURELES", "place": "village"}}, {"type": "node", "id": 7330263189, "lat": 3.7250603, "lon": -75.4901666, "tags": {"name": "PUEBLO NUEVO", "place": "village"}}, {"type": "node", "id": 7330263190, "lat": 3.7270046, "lon": -75.4939736, "tags": {"name": "ALGODONES", "place": "village"}}, {"type": "node", "id": 7330263191, "lat": 3.727609, "lon": -75.4909751, "tags": {"name": "EL ROCIO", "place": "village"}}, {"type": "node", "id": 7330263192, "lat": 3.7276957, "lon": -75.4874479, "tags": {"name": "20 DE JULIO", "place": "village"}}, {"type": "node", "id": 7330263193, "lat": 3.7285436, "lon": -75.4890089, "tags": {"name": "LAS BRISAS", "place": "village"}}, {"type": "node", "id": 7330263194, "lat": 3.7297615, "lon": -75.4884881, "tags": {"name": "PARAISO", "place": "village"}}, {"type": "node", "id": 7330263195, "lat": 3.7296074, "lon": -75.4871506, "tags": {"name": "VILLA DEL ROCIO", "place": "village"}}, {"type": "node", "id": 7330263196, "lat": 3.7292639, "lon": -75.4857963, "tags": {"name": "SAN FERNANDO", "place": "village"}}, {"type": "node", "id": 7330263197, "lat": 3.7312556, "lon": -75.4855796, "tags": {"name": "SAN FERNANDO BAJO", "place": "village"}}, {"type": "node", "id": 7330263198, "lat": 3.7303378, "lon": -75.481846, "tags": {"name": "JOSE MARIANO MELO", "place": "village"}}, {"type": "node", "id": 7869102984, "lat": 3.6708157, "lon": -75.3855148, "tags": {"name": "Amoya", "place": "village"}}, {"type": "node", "id": 8082800709, "lat": 3.8437099, "lon": -75.5799441, "tags": {"name": "Buenos Aires", "place": "farm"}}, {"type": "node", "id": 8712265197, "lat": 3.8280764, "lon": -75.4351252}, {"type": "node", "id": 8712265198, "lat": 3.8276739, "lon": -75.4346438}, {"type": "node", "id": 8712265199, "lat": 3.828193, "lon": -75.4342828}, {"type": "node", "id": 8712265200, "lat": 3.8285108, "lon": -75.4342121}, {"type": "node", "id": 8712265201, "lat": 3.8287156, "lon": -75.4338511}, {"type": "node", "id": 8712265202, "lat": 3.8287332, "lon": -75.4337626}, {"type": "node", "id": 8712265203, "lat": 3.8285355, "lon": -75.4336812}, {"type": "node", "id": 8712265204, "lat": 3.8285461, "lon": -75.4336281}, {"type": "node", "id": 8712265205, "lat": 3.8278645, "lon": -75.4334865}, {"type": "node", "id": 8712265206, "lat": 3.827688, "lon": -75.4333273}, {"type": "node", "id": 8712265207, "lat": 3.827409, "lon": -75.4332459}, {"type": "node", "id": 8712265208, "lat": 3.8271442, "lon": -75.4333839}, {"type": "node", "id": 8712265209, "lat": 3.8269499, "lon": -75.43303}, {"type": "node", "id": 8712265210, "lat": 3.8275467, "lon": -75.4328176}, {"type": "node", "id": 8712265211, "lat": 3.8277551, "lon": -75.432984}, {"type": "node", "id": 8712265212, "lat": 3.8284331, "lon": -75.4325663}, {"type": "node", "id": 8712265213, "lat": 3.8290193, "lon": -75.4328495}, {"type": "node", "id": 8712265214, "lat": 3.8291535, "lon": -75.4331078}, {"type": "node", "id": 8712265215, "lat": 3.828931, "lon": -75.4335892}, {"type": "node", "id": 8712265216, "lat": 3.829104, "lon": -75.4337555}, {"type": "node", "id": 8712265217, "lat": 3.8289451, "lon": -75.4340068}, {"type": "node", "id": 8712265218, "lat": 3.8288639, "lon": -75.4339678}, {"type": "node", "id": 8712265219, "lat": 3.8287721, "lon": -75.4341944}, {"type": "node", "id": 8712265220, "lat": 3.8288286, "lon": -75.4343855}, {"type": "node", "id": 8712265221, "lat": 3.828313, "lon": -75.4347182}, {"type": "node", "id": 8712265222, "lat": 3.8284366, "lon": -75.4349093}, {"type": "node", "id": 8712265223, "lat": 3.8379555, "lon": -75.587956}, {"type": "node", "id": 8712265224, "lat": 3.8374575, "lon": -75.5885598}, {"type": "node", "id": 8712265225, "lat": 3.8369656, "lon": -75.5881778}, {"type": "node", "id": 8712265226, "lat": 3.8365475, "lon": -75.588184}, {"type": "node", "id": 8712265227, "lat": 3.8367197, "lon": -75.5888988}, {"type": "node", "id": 8712265228, "lat": 3.8360679, "lon": -75.5890467}, {"type": "node", "id": 8712265229, "lat": 3.835699, "lon": -75.5885044}, {"type": "node", "id": 8712265230, "lat": 3.8359757, "lon": -75.5884304}, {"type": "node", "id": 8712265231, "lat": 3.8358589, "lon": -75.5880915}, {"type": "node", "id": 8712265232, "lat": 3.8366397, "lon": -75.5879005}, {"type": "node", "id": 8712265233, "lat": 3.8366336, "lon": -75.5876972}, {"type": "node", "id": 8712265234, "lat": 3.8374636, "lon": -75.5878882}, {"type": "node", "id": 8712265235, "lat": 3.9057049, "lon": -75.6971704}, {"type": "node", "id": 8712265236, "lat": 3.9061721, "lon": -75.6963878}, {"type": "node", "id": 8712265237, "lat": 3.9053238, "lon": -75.6955067}, {"type": "node", "id": 8712265238, "lat": 3.9039344, "lon": -75.6945207}, {"type": "node", "id": 8712265239, "lat": 3.9031966, "lon": -75.6951985}, {"type": "node", "id": 8712265240, "lat": 3.9039466, "lon": -75.6957655}, {"type": "node", "id": 8712265241, "lat": 3.9037376, "lon": -75.6960797}, {"type": "node", "id": 8712265242, "lat": 3.9046168, "lon": -75.6966343}, {"type": "node", "id": 8712265243, "lat": 3.904752, "lon": -75.6964371}, {"type": "node", "id": 8712265244, "lat": 3.9048565, "lon": -75.6964988}, {"type": "node", "id": 8712265245, "lat": 3.9047827, "lon": -75.696622}, {"type": "node", "id": 9002056121, "lat": 3.9307427, "lon": -75.7381314, "tags": {"name": "La RIvera", "place": "farm"}}, {"type": "way", "id": 480719426, "nodes": [4736860539, 4736860540, 4736860535, 4736860533, 4736860539], "tags": {"building": "yes", "name": "La Camelia", "place": "isolated_dwelling"}}, {"type": "way", "id": 567551901, "nodes": [5462754272, 5462754273, 5462754274, 5462754275, 5520539128, 5520539127, 5462754272], "tags": {"name": "Plaza de ferias", "place": "square"}}, {"type": "way", "id": 605739110, "nodes": [5744502514, 5744502515, 5744502516, 5744502517, 5744502518, 5744502519, 5744502520, 5744503521, 5744503522, 5744503523, 5744503524, 5744503525, 5744503526, 5744503527, 5744503528, 5744503533, 5744503529, 5744503530, 5744503531, 5744503532, 5744502514], "tags": {"building": "yes", "name": "Plaza de Toros La Sombrerera", "place": "square"}}, {"type": "way", "id": 784069135, "nodes": [7324023055, 7324023056, 7324023057, 7324023058, 7324023059, 7324023041, 7324023042, 7324023043, 7324023044, 7324023045, 7324023052, 7324023053, 7324023054, 7324023046, 7324023047, 7324023048, 7324023049, 7324023050, 7324023051, 7324023055], "tags": {"name": "Plaza De Toros La Sombrerera", "place": "square"}}, {"type": "way", "id": 940727039, "nodes": [8712265197, 8712265198, 8712265199, 8712265200, 8712265201, 8712265202, 8712265203, 8712265204, 8712265205, 8712265206, 8712265207, 8712265208, 8712265209, 8712265210, 8712265211, 8712265212, 8712265213, 8712265214, 8712265215, 8712265216, 8712265217, 8712265218, 8712265219, 8712265220, 8712265221, 8712265222, 8712265197], "tags": {"name": "Calarma Risalda", "place": "village"}}, {"type": "way", "id": 940727040, "nodes": [8712265223, 8712265224, 8712265225, 8712265226, 8712265227, 8712265228, 8712265229, 8712265230, 8712265231, 8712265232, 8712265233, 8712265234, 8712265223], "tags": {"place": "village"}}, {"type": "way", "id": 940727041, "nodes": [8712265235, 8712265236, 8712265237, 8712265238, 8712265239, 8712265240, 8712265241, 8712265242, 8712265243, 8712265244, 8712265245, 8712265235], "tags": {"place": "village"}}]}